fire_data2,Serial,FireCategory,FireYear,Area,DistrictName,UnitName,FullFireNumber,FireName,Size_class,EstTotalAcres,Protected_Acres,HumanOrLightning,CauseBy,GeneralCause,SpecificCause,Cause_Comments,Lat_DD,Long_DD,LatLongDD,FO_LandOwnType,Twn,Rng,Sec,Subdiv,LandmarkLocation,County,RegUseZone,RegUseRestriction,Industrial_Restriction,Ign_DateTime,ReportDateTime,Discover_DateTime,Control_DateTime,CreationDate,ModifiedDate,DistrictCode,UnitCode,DistFireNumber
40,109111,STAT,2017,NOA,Forest Grove,Forest Grove,17-531032-18,Raven's Ridge Fire,C,19.25,19.25,Human,Other-Public,Under Invest,,,45.7076,-123.37775,POINT (-123.37775 45.7076),State,3N,6W,36.0,NWNW,13.74 miles Southwest of Verno,Washington,NW3,Reg Use Closure,Lvl 2 Limited Shutdown,08/19/2017 03:35:00 PM,08/19/2017 03:40:00 PM,08/19/2017 03:37:00 PM,08/22/2017 05:00:00 PM,09/04/2017 12:00:00 AM,09/04/2017 02:01:00 PM,53,531,032
41,109245,STAT,2017,SOA,Southwest Oregon,Grants Pass,17-712536-18,Sykes Creek,B,0.5,0.5,Lightning,Lightning,Lightning,Lightning,,42.58052,-123.12442,POINT (-123.12442 42.58052),BLM,34S,4W,25.0,SESW,10.27 miles N of RR,Jackson,SW3,Reg Use Closure,Lvl 4 Complete Shutdown,09/07/2017 02:00:00 PM,09/07/2017 03:30:00 PM,09/07/2017 03:20:00 PM,09/13/2017 12:52:00 PM,09/08/2017 12:00:00 AM,09/26/2017 02:05:00 PM,71,712,536
42,106510,STAT,2017,SOA,Southwest Oregon,Grants Pass,17-712680-17,N Old Stage Road,A,0.01,0.01,Human,Transient,Miscellaneous,Warming Fire,,42.16487,-123.64093,POINT (-123.64093 42.16487),Rural Residential,39S,8W,22.0,SWNW,.39 Miles E of CJ,Josephine,SW3,Outside Closed Fire Season,Outside Closed Fire Season,05/30/2017 01:00:00 PM,05/30/2017 01:29:00 PM,05/30/2017 01:29:00 PM,06/02/2017 08:34:00 AM,05/30/2017 12:00:00 AM,06/05/2017 11:36:00 AM,71,712,680
43,109019,STAT,2017,SOA,Western Lane,Veneta,17-781047-18,Canary,A,0.01,0.01,Human,Recreationist,Miscellaneous,Warming Fire,,43.91917,-124.10917,POINT (-124.10917 43.91917),State,19S,12W,15.0,NESE,Lilly Lake,Lane,SL2,Reg Use Closure,Lvl 2 Limited Shutdown,09/01/2017 09:00:00 AM,09/01/2017 10:53:00 AM,09/01/2017 10:45:00 AM,09/01/2017 12:00:00 PM,09/01/2017 12:00:00 AM,09/01/2017 01:09:00 PM,78,781,047
44,108316,STAT,2017,EOA,Central Oregon,John Day,17-952032-18,Trent Creek,C,79.6,30.0,Lightning,Lightning,Lightning,Lightning,,44.67889,-120.0,POINT (-120 44.67889),Small Woodlands,10S,23E,30.0,NENE,Trent Creek,Wheeler,EC2,Reg Use Closure,Does Not Apply - Eastern OR,08/10/2017 06:45:00 PM,08/10/2017 07:13:00 PM,08/10/2017 07:10:00 PM,08/16/2017 03:00:00 PM,08/10/2017 12:00:00 AM,09/03/2017 10:47:00 AM,95,952,032
45,110203,STAT,2018,NOA,Astoria,Astoria,18-521071-18,Big O,A,0.01,0.01,Human,Ruralist-Paying,Debris Burning,Unattended,,46.10078,-123.7605,POINT (-123.7605 46.10078),Rural Residential,7N,9W,11.0,SESE,Big O Saloon,Clatsop,NW1,Outside Closed Fire Season,Outside Closed Fire Season,06/03/2018 10:00:00 AM,06/04/2018 07:00:00 AM,06/04/2018 06:55:00 AM,06/04/2018 07:45:00 AM,06/04/2018 12:00:00 AM,06/04/2018 09:50:00 AM,52,521,071
46,113641,STAT,2018,NOA,North Cascade,Santiam,18-582069-19,Oak Knoll Rd,B,0.75,0.75,Human,Ruralist-Paying,Debris Burning,Other - Burning Related,,45.03439,-122.72806,POINT (-122.72806 45.03439),Rural Residential,6S,1E,19.0,SENE,2mi NE Silverton,Marion,CM1,Reg Use Closure,Lvl 1 Fire Season Only,10/23/2018 02:45:00 PM,10/23/2018 02:45:00 PM,10/23/2018 02:45:00 PM,10/23/2018 03:00:00 PM,10/23/2018 12:00:00 AM,11/06/2018 09:59:00 AM,58,582,069
47,110423,STAT,2018,SOA,Southwest Oregon,Medford,18-711502-18,Grizzly,A,0.1,0.1,Lightning,Lightning,Lightning,Lightning,,42.30025,-122.5749,POINT (-122.5749 42.30025),BLM,38S,2E,3.0,NENW,Lost Lake Dam,Jackson,SW1,Closed Fire Season Lvl 1,Lvl 1 Fire Season Only,06/20/2018 03:19:00 PM,06/20/2018 07:55:00 PM,06/20/2018 07:50:00 PM,06/21/2018 02:50:00 AM,06/21/2018 12:00:00 AM,06/21/2018 03:29:00 PM,71,711,502
48,113120,STAT,2018,EOA,Central Oregon,Sisters,18-955070-19,Ponderosa Way 1207,A,,0.1,Human,,Miscellaneous,,,43.68306,-121.58278,POINT (-121.58278 43.68306),ERROR: #N/A,22S,10E,7.0,SWNW,4 Miles West of La Pine,Deschutes,,,,,09/24/2018 03:46:00 PM,,,09/24/2018 12:00:00 AM,09/24/2018 04:30:00 PM,95,955,070
49,110255,STAT,2018,EOA,Northeast Oregon,Wallowa,18-974052-18,Johnson Canyon,A,0.1,0.1,Lightning,Lightning,Lightning,Lightning,,45.67611,-117.14667,POINT (-117.14667 45.67611),State,2N,45E,23.0,SENE,Johnson Canyon,Wallowa,NE2,Outside Closed Fire Season,Outside Closed Fire Season,06/07/2018 08:17:00 PM,06/08/2018 06:25:00 AM,06/08/2018 06:17:00 AM,06/08/2018 04:00:00 PM,06/08/2018 12:00:00 AM,07/31/2018 04:44:00 PM,97,974,052
50,115435,STAT,2019,SOA,Southwest Oregon,Grants Pass,19-712271-20,Kerby Mainline #2,A,0.13,0.13,Human,Other-Public,Arson,Other - Arson Related,Juvenile admitted to setting this fire,42.20582,-123.623,POINT (-123.623 42.20582),BLM,39S,8W,3.0,NESE,3.23 miles NE of CJ,Josephine,SW3,Reg Use Closure,Lvl 2 Limited Shutdown,08/03/2019 04:30:00 PM,08/03/2019 04:35:00 PM,08/03/2019 04:35:00 PM,08/07/2019 12:40:00 PM,08/03/2019 12:00:00 AM,08/08/2019 02:17:00 PM,71,712,271
51,114354,STAT,2019,SOA,Southwest Oregon,Grants Pass,19-71200051-19,Forks Park,A,0.01,0.01,Human,Transient,Recreation,Campfire Not Extinguished,Transient Campfire,42.1568,-123.64958,POINT (-123.64958 42.1568),State,39S,8W,21.0,SWSE,0.43 miles S of CJ,Josephine,SW3,Closed Fire Season Lvl 1,Lvl 1 Fire Season Only,06/19/2019 10:48:00 AM,06/19/2019 10:48:00 AM,06/19/2019 10:48:00 AM,06/22/2019 11:00:00 AM,06/19/2019 12:00:00 AM,06/23/2019 01:11:00 PM,71,712,B51
52,114074,STAT,2019,SOA,South Cascade,Eastern Lane,19-771173-19,East King STAT,A,0.02,0.01,Human,Motorist,Miscellaneous,Other - Miscellaneous Related,,44.16958,-122.20814,POINT (-122.20814 44.16958),County,16S,5E,21.0,NWNE,Horse Creek,Lane,EL1,Outside Closed Fire Season,Outside Closed Fire Season,05/29/2019 02:00:00 PM,05/29/2019 02:15:00 PM,05/29/2019 02:14:00 PM,05/29/2019 02:17:00 PM,05/30/2019 12:00:00 AM,05/30/2019 09:38:00 AM,77,771,173
53,117419,STAT,2020,SOA,Southwest Oregon,Grants Pass,20-712818-20,Culver Lane 102,A,0.01,0.01,Human,Ruralist-Paying,Debris Burning,Inadequate Mop Up,Escaped Burn Pile,42.17917,-123.42613,POINT (-123.42613 42.17917),Rural Residential,35S,6W,20.0,NESE,7.12 miles NW of GP,Josephine,SW3,Outside Closed Fire Season,Outside Closed Fire Season,04/29/2020 05:00:00 PM,04/29/2020 05:52:00 PM,04/29/2020 05:52:00 PM,05/03/2020 12:00:00 PM,05/01/2020 12:00:00 AM,05/10/2020 02:04:00 PM,71,712,818
54,118469,STAT,2020,SOA,Douglas - DFPA,DFPA South,20-732069-21,Milepost 92 South,A,0.25,0.25,Human,Other-Public,Miscellaneous,Other - Miscellaneous Related,,42.84142,-123.25445,POINT (-123.25445 42.84142),BLM,31S,5W,26.0,SWSE,Azalea,Douglas,DG2,Reg Use Closure,Lvl 2 Limited Shutdown,07/21/2020 03:00:00 PM,07/22/2020 05:35:00 PM,07/22/2020 05:30:00 PM,07/23/2020 01:00:00 AM,07/25/2020 12:00:00 AM,08/03/2020 04:56:00 PM,73,732,069
55,124436,STAT,2021,NOA,Forest Grove,Forest Grove,21-531064-21,Meadowlake Vineyard Fire,A,0.25,0.25,Human,,Equipment Use,,,45.30525,-123.25253,POINT (-123.25253 45.30525),ERROR: #N/A,3S,5W,24.0,SWSW,Beaver Creek,Yamhill,NW3,,,,06/29/2021 10:04:00 AM,,,06/29/2021 12:00:00 AM,06/29/2021 11:35:00 AM,53,531,064
56,127500,STAT,2021,SOA,Douglas - DFPA,DFPA South,21-732022-22,MP 113,A,0.1,0.1,Human,Other-Public,Recreation,Fireworks,,43.07417,-123.35889,POINT (-123.35889 43.07417),State,29S,6W,1.0,NESW,,Douglas,DG2,Reg Use Closure,Lvl 2 Limited Shutdown,07/05/2021 03:50:00 PM,07/05/2021 04:05:00 PM,07/05/2021 04:00:00 PM,07/05/2021 05:00:00 PM,07/05/2021 12:00:00 AM,08/26/2021 12:57:00 PM,73,732,022
57,125502,STAT,2021,EOA,Klamath-Lake,Klamath,21-981023-22,Old Fort Road 359,A,,0.1,Human,,Miscellaneous,,Structure Fire spread to wildlalnd,42.28722,-121.75278,POINT (-121.75278 42.28722),Rural Residential,38S,9E,3.0,SWSW,Plum Hills,Klamath,KF1,,,,07/28/2021 03:05:00 PM,,,07/28/2021 12:00:00 AM,07/28/2021 05:48:00 PM,98,981,023
58,124234,STAT,2021,EOA,Walker Range - WRFPA,Crescent,21-991254-21,Marsh Creek,A,0.1,0.1,Lightning,Lightning,Lightning,Lightning,,43.46833,-121.92837,POINT (-121.92837 43.46833),Industrial,24S,7E,30.0,SWNE,South 58,Klamath,WC2,Reg Use Closure,Does Not Apply - Eastern OR,06/22/2021 04:00:00 PM,06/22/2021 04:14:00 PM,06/22/2021 04:05:00 PM,06/22/2021 06:37:00 PM,06/22/2021 12:00:00 AM,10/02/2021 04:06:00 PM,99,991,254
59,131353,STAT,2022,EOA,Northeast Oregon,Baker,22-972012-23,Yankee Sawmill,A,0.1,0.1,Lightning,Lightning,Lightning,Lightning,,44.92056,-118.11306,POINT (-118.11306 44.92056),Small Woodlands,7S,38E,30.0,SWSW,North Powder River,Baker,NE3,Reg Use Closure,Does Not Apply - Eastern OR,08/20/2022 09:00:00 AM,08/20/2022 04:00:00 PM,08/20/2022 03:45:00 PM,08/21/2022 10:44:00 AM,08/20/2022 12:00:00 AM,08/28/2022 03:25:00 PM,97,972,012
146,131239,STAT,2022,EOA,Walker Range - WRFPA,Crescent,22-991220-23,Hay Fire,A,,0.2,Human,,Miscellaneous,,,43.59358,-121.49422,POINT (-121.49422 43.59358),Other Public,23S,10E,11.0,NWSE,Hwy 31,Klamath,WC2,,,,08/16/2022 06:56:00 PM,,,08/18/2022 12:00:00 AM,08/18/2022 09:11:00 AM,99,991,220
11376,114746,STAT,2019,SOA,Coos - CFPA,Gold Beach,19-723006-20,MM 275 Hwy 101,A,0.01,0.01,Human,Other-Public,Recreation,Fireworks,,43.10417,-124.415,POINT (-124.415 43.10417),State,28S,14W,31.0,SWNE,0.25 S Bandon,Coos,CS1,Reg Use Closure,Lvl 1 Fire Season Only,07/06/2019 04:45:00 PM,07/06/2019 04:56:00 PM,07/06/2019 04:50:00 PM,07/06/2019 05:06:00 PM,07/06/2019 12:00:00 AM,07/25/2019 02:37:00 PM,72,723,006
11380,123251,STAT,2021,SOA,Douglas - DFPA,DFPA Central,21-733424-21,Rice Creek Stump,A,0.01,0.01,Human,Recreationist,Recreation,Rubbish Disposal,Frequent recreationalist burning trash,43.01983,-123.47512,POINT (-123.47512 43.01983),BLM,29S,7W,25.0,NESW,7.36 miles Northwest of Riddle,Douglas,DG1,Outside Closed Fire Season,Outside Closed Fire Season,02/24/2021 10:00:00 AM,02/24/2021 10:30:00 AM,02/24/2021 10:20:00 AM,02/24/2021 01:05:00 PM,02/24/2021 12:00:00 AM,02/26/2021 04:40:00 PM,73,733,424
11383,111096,STAT,2018,SOA,Southwest Oregon,Grants Pass,18-712155-19,Monument Dr 6010,A,0.25,0.25,Human,Other-Landowner Related,Equipment Use,"Cutting, Welding, or Grinding",Fence builder grinding near dry grass/blackberries,42.50627,-123.37774,POINT (-123.37774 42.50627),Rural Residential,35S,6W,23.0,SESW,5.28 miles NW of GP,Josephine,SW3,Reg Use Closure,Lvl 2 Limited Shutdown,07/14/2018 11:25:00 AM,07/14/2018 11:30:00 AM,07/14/2018 11:26:00 AM,07/18/2018 08:10:00 AM,07/14/2018 12:00:00 AM,07/31/2018 02:03:00 PM,71,712,155
11385,117269,STAT,2020,EOA,Central Oregon,Sisters,20-955111-20,Deer Ave 025,B,0.8,0.8,Human,Ruralist-Paying,Debris Burning,Failure to Follow Permit Instruction,"No control line around debris pile, burn escaped",43.67065,-121.5566,POINT (-121.5566 43.67065),Rural Residential,22S,10E,17.0,SENW,3 miles west of Lapine,Deschutes,WC2,Outside Closed Fire Season,Does Not Apply - Eastern OR,02/25/2020 02:00:00 PM,02/25/2020 03:01:00 PM,02/25/2020 03:00:00 PM,02/25/2020 05:15:00 PM,02/25/2020 12:00:00 AM,03/10/2020 09:19:00 AM,95,955,111
11387,110909,STAT,2018,EOA,Klamath-Lake,Klamath,18-981005-19,Dump Road 202,B,0.75,0.75,Human,Ruralist-Paying,Debris Burning,Other - Burning Related,,42.06861,-121.40778,POINT (-121.40778 42.06861),Other Private,40S,12E,27.0,SESW,Transformer Road,Klamath,KF1,Reg Use Closure,Does Not Apply - Eastern OR,07/08/2018 12:25:00 PM,07/08/2018 12:25:00 PM,07/08/2018 12:25:00 PM,07/08/2018 02:30:00 PM,07/08/2018 12:00:00 AM,07/19/2018 08:25:00 AM,98,981,005
11389,114347,STAT,2019,SOA,Southwest Oregon,Grants Pass,19-71200046-19,Harris Way 345,A,0.1,0.1,Human,Ruralist-Paying,Debris Burning,Burning During Poor Condition,Escaped Burn Pile,42.51062,-123.39717,POINT (-123.39717 42.51062),Other Private,35S,6W,22.0,NESW,6.06 miles NW of GP,Josephine,SW3,Closed Fire Season Lvl 1,Lvl 1 Fire Season Only,06/18/2019 11:00:00 AM,06/18/2019 11:26:00 AM,06/18/2019 11:26:00 AM,06/21/2019 12:27:00 PM,06/18/2019 12:00:00 AM,07/06/2019 03:09:00 PM,71,712,B46
11396,118162,STAT,2020,EOA,Northeast Oregon,Pendleton,20-973004-21,Little Dry Creek,B,1.0,1.0,Lightning,Lightning,Lightning,Lightning,Lighing struck ponderosa,45.80111,-118.3575,POINT (-118.3575 45.80111),Small Woodlands,4N,36E,30.0,NENE,Little Dry Creek,Umatilla,NE1,Closed Fire Season Lvl 1,Does Not Apply - Eastern OR,07/07/2020 06:20:00 AM,07/09/2020 04:32:00 PM,07/09/2020 04:30:00 PM,07/10/2020 05:30:00 PM,07/09/2020 12:00:00 AM,07/18/2020 11:33:00 AM,97,973,004
11398,113400,STAT,2018,SOA,Southwest Oregon,Medford,18-711465-19,Dead Indian 19015,A,0.01,0.01,Human,Rancher-Farmer,Debris Burning,Other - Burning Related,Escaped illegal bun pile.,42.2843,-122.41718,POINT (-122.41718 42.2843),Small Woodlands,38S,3E,12.0,NENW,16.22 Mi NE of Ashland,Jackson,SW2,Closed Fire Season Lvl 1,Lvl 1 Fire Season Only,10/10/2018 08:55:00 AM,10/10/2018 08:58:00 AM,10/10/2018 08:58:00 AM,10/13/2018 02:00:00 PM,10/10/2018 12:00:00 AM,10/28/2018 02:18:00 PM,71,711,465
11399,119923,STAT,2020,EOA,Northeast Oregon,Wallowa,20-974004-21,Sopher,A,0.1,0.1,Lightning,Lightning,Lightning,Lightning,Fire caused by lightning,45.65028,-117.66528,POINT (-117.66528 45.65028),Small Woodlands,2N,41E,15.0,NESE,,Wallowa,NE2,Reg Use Closure,Does Not Apply - Eastern OR,08/05/2020 11:09:00 PM,08/06/2020 08:04:00 AM,08/06/2020 08:00:00 AM,08/11/2020 04:45:00 PM,08/06/2020 12:00:00 AM,09/03/2020 10:09:00 AM,97,974,004
11400,114243,STAT,2019,EOA,Klamath-Lake,Lakeview,19-982064-19,Fritz 154,A,0.1,0.1,Lightning,Lightning,Lightning,Lightning,,42.46889,-120.97778,POINT (-120.97778 42.46889),Industrial,36S,15E,8.0,NWNW,"6 miles NE of Bly, OR",Klamath,KF1,Closed Fire Season Lvl 1,Does Not Apply - Eastern OR,06/13/2019 07:30:00 AM,06/13/2019 07:32:00 AM,06/13/2019 07:30:00 AM,06/14/2019 01:16:00 PM,06/13/2019 12:00:00 AM,09/14/2019 09:38:00 PM,98,982,064
11402,107078,STAT,2017,SOA,Southwest Oregon,Medford,17-711007-18,Kershaw 6900,B,1.0,1.0,Human,Recreationist,Recreation,Firearms - Ammunition,Tracer shells found at shooting platform,42.40992,-122.80512,POINT (-122.80512 42.40992),County,36S,1W,27.0,NWSE,Swaggerty Reservoir,Jackson,SW1,Reg Use Closure,Lvl 1 Fire Season Only,07/04/2017 02:30:00 PM,07/04/2017 02:37:00 PM,07/04/2017 02:35:00 PM,07/07/2017 02:00:00 PM,07/04/2017 12:00:00 AM,07/07/2017 03:41:00 PM,71,711,007
11404,125438,STAT,2021,SOA,Western Lane,Veneta,21-781028-22,Smigley,A,0.25,0.25,Human,Other-Public,Miscellaneous,Other - Miscellaneous Related,Bird shocked by powerline fell and caught grass on fire,43.99774,-123.36241,POINT (-123.36241 43.99774),Other Private,18S,6W,13.0,SESW,3.57 miles South of Veneta,Lane,WT1,Closed Fire Season Lvl 1,Lvl 2 Limited Shutdown,07/27/2021 10:23:00 AM,07/27/2021 10:23:00 AM,07/27/2021 10:23:00 AM,07/27/2021 10:40:00 AM,07/27/2021 12:00:00 AM,07/27/2021 01:30:00 PM,78,781,028
11407,117127,STAT,2019,SOA,Coos - CFPA,Gold Beach,19-723113-20,Myers Creek,B,2.89,2.89,Human,Other Forest Mgt. Worker,Debris Burning,Other - Burning Related,SOD Burn not adequately mopped up,42.3462,-124.413,POINT (-124.413 42.3462),Rural Residential,37S,14W,30.0,SWNW,4 S Gold Beach,Curry,CS4,Outside Closed Fire Season,Outside Closed Fire Season,10/27/2019 05:45:00 PM,10/27/2019 05:49:00 PM,10/27/2019 05:45:00 PM,10/27/2019 07:29:00 PM,10/28/2019 12:00:00 AM,11/20/2019 11:40:00 AM,72,723,113
11411,114349,STAT,2019,EOA,Central Oregon,The Dalles,19-954060-19,Reed Road,A,0.1,0.1,Human,Rancher-Farmer,Debris Burning,Inadequate Mop Up,Fire was caused by a burn pile that re-ignited,45.65083,-121.59028,POINT (-121.59028 45.65083),Agriculture,2N,10E,17.0,SESE,5 Miles SW of Hood River,Hood River,MH4,Closed Fire Season Lvl 1,Lvl 1 Fire Season Only,06/18/2019 05:00:00 PM,06/18/2019 05:05:00 PM,06/18/2019 05:00:00 PM,06/18/2019 06:30:00 PM,06/18/2019 12:00:00 AM,06/20/2019 12:25:00 PM,95,954,060
11412,118277,STAT,2020,SOA,Southwest Oregon,Grants Pass,20-712051-21,Steam Beer Mine,B,2.0,2.0,Human,Recreationist,Smoking,Discarded Cigarette/Tobacco,Discarded cigarette,42.64384,-123.45616,POINT (-123.45616 42.64384),Small Woodlands,34S,6W,6.0,SWNE,6.59 miles S of Glendale,Josephine,SW3,Reg Use Closure,Lvl 2 Limited Shutdown,07/14/2020 11:30:00 PM,07/15/2020 05:33:00 AM,07/15/2020 05:33:00 AM,07/20/2020 12:10:00 PM,07/16/2020 12:00:00 AM,08/06/2020 12:33:00 PM,71,712,051
11414,111044,STAT,2018,SOA,Southwest Oregon,Grants Pass,18-712144-19,Fish Hatchery 3084,A,0.01,0.01,Human,Ruralist-Paying,Recreation,Charcoal use or disposal,Improper disposal of charcoal,42.35458,-123.42166,POINT (-123.42166 42.35458),Other Private,37S,6W,16.0,SWNW,7.53 miles SW of GP,Josephine,SW3,Reg Use Closure,Lvl 2 Limited Shutdown,07/12/2018 08:27:00 PM,07/12/2018 08:29:00 PM,07/12/2018 08:28:00 PM,07/23/2018 02:46:00 PM,07/13/2018 12:00:00 AM,07/31/2018 11:54:00 AM,71,712,144
11415,117218,STAT,2019,EOA,Central Oregon,John Day,19-952116-20,Mile Post 25,B,0.5,0.5,Human,Public Utility,Equipment Use,"Powerlines - Power pole malfunction (transformer, fuse, etc.",,44.74167,-119.28361,POINT (-119.28361 44.74167),Other Private,9S,29E,31.0,SWSW,,Grant,EC2,Outside Closed Fire Season,Does Not Apply - Eastern OR,11/09/2019 12:00:00 AM,11/09/2019 12:46:00 PM,11/09/2019 12:00:00 AM,11/09/2019 03:45:00 PM,11/12/2019 12:00:00 AM,11/12/2019 04:40:00 PM,95,952,116
11417,110238,STAT,2018,SOA,South Cascade,Eastern Lane,18-771122-18,McKenzie Hwy MP 22,A,0.01,0.01,Human,Ruralist-Paying,Debris Burning,Inadequate clearing,Pile being burnt had no clearing around it,44.11927,-122.64039,POINT (-122.64039 44.11927),Rural Residential,17S,1E,1.0,NWSW,,Lane,EL1,Outside Closed Fire Season,Outside Closed Fire Season,06/06/2018 11:55:00 AM,06/06/2018 11:58:00 AM,06/06/2018 11:56:00 AM,06/06/2018 12:10:00 PM,06/06/2018 12:00:00 AM,06/06/2018 04:46:00 PM,77,771,122
11423,124126,STAT,2021,SOA,Southwest Oregon,Grants Pass,21-71200075-21,Lone Mountain Rd 1800,A,0.01,0.01,Human,Ruralist-Paying,Smoking,Discarded Cigarette/Tobacco,dropped cigarette and ignited dry fuels,42.06,-123.73475,POINT (-123.73475 42.06),Rural Residential,40S,9W,26.0,NWSW,8.38 miles Southwest of Cave J,Josephine,SW3,Reg Use Closure,Lvl 1 Fire Season Only,06/18/2021 02:20:00 PM,06/18/2021 02:30:00 PM,06/18/2021 02:25:00 PM,06/21/2021 11:38:00 AM,06/18/2021 12:00:00 AM,07/03/2021 04:57:00 PM,71,712,B75
11426,109713,STAT,2017,EOA,Northeast Oregon,Pendleton,17-973029-18,Hay Creek,C,79.0,79.0,Human,Hunter,Recreation,Warming Fire Unattended,"Middle of deer sesaon, late afternoon warming fire",45.79333,-118.3775,POINT (-118.3775 45.79333),Small Woodlands,4N,35E,25.0,SESE,Weston Mountain,Umatilla,NE1,Closed Fire Season Lvl 1,Does Not Apply - Eastern OR,10/06/2017 04:00:00 PM,10/06/2017 04:07:00 PM,10/06/2017 04:01:00 PM,10/06/2017 06:00:00 PM,10/07/2017 12:00:00 AM,10/25/2017 01:58:00 PM,97,973,029
11428,117287,STAT,2020,NOA,Forest Grove,Columbia City,20-532049-20,Nehalem Hwy N #2,A,0.25,0.25,Human,Ruralist-Paying,Debris Burning,Other - Burning Related,Wind blown embers.,45.9295,-123.15099,POINT (-123.15099 45.9295),Small Woodlands,5N,4W,11.0,NWSW,,Columbia,NW3,Outside Closed Fire Season,Outside Closed Fire Season,03/20/2020 04:03:00 PM,03/20/2020 04:05:00 PM,03/20/2020 04:04:00 PM,03/20/2020 04:52:00 PM,03/20/2020 12:00:00 AM,04/15/2020 09:20:00 AM,53,532,049
11431,112199,STAT,2018,SOA,Southwest Oregon,Grants Pass,18-712259-19,Upper Graves Creek,B,3.0,3.0,Lightning,Lightning,Lightning,Lightning,,42.70245,-123.14494,POINT (-123.14494 42.70245),BLM,33S,4W,14.0,NESW,14.36 miles East of Glendale,Jackson,SW3,Reg Use Closure,Lvl 2 Limited Shutdown,07/15/2018 09:00:00 AM,07/15/2018 07:16:00 PM,07/15/2018 12:30:00 PM,12/31/2018 12:00:00 PM,08/16/2018 12:00:00 AM,08/16/2018 03:50:00 PM,71,712,259
11432,128061,STAT,2021,SOA,Coos - CFPA,Coos Bay,21-721148-22,Miner Creek,A,0.1,0.1,Human,Recreationist,Recreation,Campfire Not Extinguished,,43.3305,-124.3465,POINT (-124.3465 43.3305),Small Woodlands,26S,14W,10.0,SWNE,7 W Coos Bay,Coos,CS1,Reg Use Closure,Lvl 2 Limited Shutdown,09/16/2021 12:00:00 PM,09/16/2021 12:15:00 PM,09/16/2021 12:15:00 PM,09/16/2021 03:59:00 PM,09/21/2021 12:00:00 AM,10/18/2021 08:50:00 AM,72,721,148
11435,116353,STAT,2019,NOA,Forest Grove,Columbia City,19-532039-20,Shepard Rd. #1,A,0.01,0.01,Lightning,Lightning,Lightning,Lightning,,46.11764,-123.09969,POINT (-123.09969 46.11764),Industrial,7N,3W,6.0,NWSW,,Columbia,NW3,Reg Use Closure,Lvl 2 Limited Shutdown,08/29/2019 03:30:00 AM,08/29/2019 04:25:00 PM,08/29/2019 04:20:00 PM,08/29/2019 07:29:00 PM,08/29/2019 12:00:00 AM,09/01/2019 09:57:00 AM,53,532,039
11438,124290,STAT,2021,SOA,Southwest Oregon,Medford,21-711550-21,Garden Row 190,A,0.1,0.1,Human,Other-Landowner Related,Equipment Use,Burning Vehicle or Equipment,lawnmower backfire,42.42905,-123.04242,POINT (-123.04242 42.42905),Rural Residential,36S,3W,22.0,SWNE,0.71 miles Southeast of Gold H,Jackson,SW1,Reg Use Closure,Lvl 1 Fire Season Only,06/24/2021 06:49:00 PM,06/24/2021 06:49:00 PM,06/24/2021 06:49:00 PM,06/24/2021 08:04:00 PM,06/25/2021 12:00:00 AM,07/02/2021 05:39:00 PM,71,711,550
11439,106671,STAT,2017,SOA,Southwest Oregon,Grants Pass,17-712762-17,Hyde Park Rd 967,A,0.1,0.1,Human,Ruralist-Paying,Debris Burning,Inadequate Resources to Control,Escaped debris burn - inadequate resouces to control,42.30403,-123.28667,POINT (-123.28667 42.30403),Small Woodlands,37S,5W,34.0,SWSW,9.56 miles S of GP,Josephine,SW3,Closed Fire Season Lvl 1,Lvl 1 Fire Season Only,06/14/2017 12:30:00 PM,06/14/2017 01:04:00 PM,06/14/2017 01:00:00 PM,06/18/2017 11:42:00 AM,06/15/2017 12:00:00 AM,06/18/2017 12:32:00 PM,71,712,762
11440,122250,STAT,2020,SOA,Southwest Oregon,Grants Pass,20-712522-21,N School House #2,A,0.01,0.01,Human,Motorist,Smoking,Discarded Cigarette/Tobacco,Fed Ex driver admitted to discarding burning cigarette,42.54431,-123.36983,POINT (-123.36983 42.54431),BLM,35S,6W,11.0,SENE,7.57 miles N of GP,Josephine,SW3,Reg Use Closure,Lvl 4 Complete Shutdown,09/11/2020 12:29:00 PM,09/11/2020 12:33:00 PM,09/11/2020 12:33:00 PM,09/14/2020 12:30:00 PM,09/11/2020 12:00:00 AM,09/15/2020 07:08:00 PM,71,712,522
11442,108204,STAT,2017,EOA,Klamath-Lake,Lakeview,17-982068-18,Castle 483,A,,0.1,Under Invest,,Under Invest,,,42.04167,-120.755,POINT (-120.755 42.04167),Other Private,41S,17E,6.0,,3 mi SW of dog Lake,Lake,,,,,08/08/2017 12:53:00 PM,,,08/08/2017 12:00:00 AM,08/08/2017 02:11:00 PM,98,982,068
11445,108873,STAT,2017,SOA,Southwest Oregon,Medford,17-711280-18,Howard Priarie Dam,B,0.5,0.5,Human,Hunter,Smoking,Discarded Cigarette/Tobacco,Hunter Smoking cigarettes by a clearing,42.24102,-122.37112,POINT (-122.37112 42.24102),BLM,38S,4E,29.0,SENE,17.65 miles East of Ashland,Jackson,SW2,Reg Use Closure,Lvl 4 Complete Shutdown,08/27/2017 12:21:00 PM,08/27/2017 12:23:00 PM,08/27/2017 12:21:00 PM,08/27/2017 07:00:00 PM,08/27/2017 12:00:00 AM,08/28/2017 01:21:00 PM,71,711,280
11449,112599,STAT,2018,SOA,Southwest Oregon,Medford,18-711350-19,Brophy Way,A,0.01,0.01,Human,Motorist,Arson,Other - Arson Related,believed to be part of arson scenario,42.59027,-122.8164,POINT (-122.8164 42.59027),Small Woodlands,34S,1W,27.0,NWNW,1.48 miles South of Shady Cove,Jackson,SW1,Reg Use Closure,Lvl 3 Restricted Shutdown,08/31/2018 01:07:00 AM,08/31/2018 01:08:00 AM,08/31/2018 01:08:00 AM,09/03/2018 02:00:00 PM,08/31/2018 12:00:00 AM,09/07/2018 12:17:00 PM,71,711,350
11451,114967,STAT,2019,SOA,Southwest Oregon,Grants Pass,19-712131-20,Walker Mt.,A,0.01,0.01,Human,Recreationist,Recreation,Campfire Not Extinguished,Unattended party fire,42.53816,-123.30922,POINT (-123.30922 42.53816),BLM,35S,5W,8.0,SESE,6.91 miles N of GP,Josephine,SW3,Reg Use Closure,Lvl 2 Limited Shutdown,07/15/2019 09:30:00 PM,07/15/2019 10:11:00 PM,07/15/2019 10:00:00 PM,07/19/2019 12:08:00 PM,07/16/2019 12:00:00 AM,07/19/2019 07:15:00 PM,71,712,131
11454,120662,STAT,2020,NOA,North Cascade,Santiam,20-582020-21,Santiam Flats,A,0.1,0.1,Human,Other-Public,Miscellaneous,Other - Miscellaneous Related,Unknown,44.71664,-122.12186,POINT (-122.12186 44.71664),Small Woodlands,10S,6E,7.0,NESW,1 Mile SE of Detroit,Marion,CM1,Reg Use Closure,Lvl 2 Limited Shutdown,08/25/2020 08:00:00 AM,08/25/2020 08:02:00 AM,08/25/2020 08:01:00 AM,08/25/2020 12:30:00 PM,08/26/2020 12:00:00 AM,10/23/2020 02:31:00 PM,58,582,020
11455,123404,STAT,2021,NOA,Forest Grove,Forest Grove,21-531058-21,Baker Creek Slash,A,0.1,0.1,Human,Ruralist-Paying,Debris Burning,Industrial- Slash-Holdover Prev. Burn(>90 days after ign.),Fire caused by hold over in piles.,45.24161,-123.33244,POINT (-123.33244 45.24161),Other Private,4S,5W,8.0,SENW,Devils Crek,Yamhill,NW3,Outside Closed Fire Season,Outside Closed Fire Season,04/16/2021 04:00:00 PM,04/16/2021 04:02:00 PM,04/16/2021 04:01:00 PM,04/16/2021 09:15:00 PM,04/16/2021 12:00:00 AM,04/16/2021 05:04:00 PM,53,531,058
11460,109658,STAT,2017,SOA,Western Lane,Veneta,17-781058-18,Simonsen #2,A,0.01,0.01,Human,Recreationist,Recreation,Firearms - Ammunition,,43.88833,-123.26917,POINT (-123.26917 43.88833),BLM,19S,5W,27.0,NESE,Doak Creek,Lane,WT1,Reg Use Closure,Lvl 1 Fire Season Only,10/03/2017 10:00:00 AM,10/03/2017 05:45:00 PM,10/03/2017 05:40:00 PM,10/03/2017 06:30:00 PM,10/03/2017 12:00:00 AM,10/06/2017 11:21:00 AM,78,781,058
11461,109035,STAT,2017,SOA,Southwest Oregon,Grants Pass,17-712486-18,Lower Graves Crk,A,0.25,0.25,Human,Ruralist-Paying,Equipment Use,Burning Vehicle or Equipment,Trailer Fire,42.6517,-123.47114,POINT (-123.47114 42.6517),BLM,34S,7W,1.0,NWNE,6.32 miles SW of Glendale,Josephine,SW4,Reg Use Closure,Lvl 4 Complete Shutdown,09/01/2017 12:30:00 AM,09/01/2017 12:35:00 AM,09/01/2017 12:33:00 AM,09/04/2017 05:03:00 PM,09/01/2017 12:00:00 AM,09/09/2017 06:54:00 PM,71,712,486
11465,126916,STAT,2021,NOA,North Cascade,Santiam,21-582011-22,Larwood 35,A,0.1,0.1,Human,Recreationist,Equipment Use,"Other -Equipment Use Related (ie. road const., other i.c.e.)",Vehicle fire that spread to wildland,44.66467,-122.75264,POINT (-122.75264 44.66467),BLM,10S,1W,25.0,SESW,1 mile s of rodgers mnt,Linn,CM2,Reg Use Closure,Lvl 2 Limited Shutdown,07/21/2021 02:15:00 PM,07/21/2021 02:23:00 PM,07/21/2021 02:15:00 PM,07/21/2021 04:17:00 PM,08/07/2021 12:00:00 AM,08/07/2021 04:14:00 PM,58,582,011
11466,123567,STAT,2021,SOA,Southwest Oregon,Medford,21-711432-21,Canal,A,0.1,0.1,Human,Recreationist,Recreation,Warming Fire Unattended,,42.75403,-122.4983,POINT (-122.4983 42.75403),Other Public,32S,3E,29.0,SWSW,14.95 miles North of Butte Fal,Jackson,SW2,Outside Closed Fire Season,Outside Closed Fire Season,05/05/2021 12:00:00 PM,05/05/2021 01:30:00 PM,05/05/2021 01:20:00 PM,05/05/2021 06:00:00 PM,05/06/2021 12:00:00 AM,05/06/2021 12:09:00 PM,71,711,432
11469,112341,STAT,2018,EOA,Central Oregon,John Day,18-952040-19,Cupper Canyon,C,42.0,0.5,Lightning,Lightning,Lightning,Lightning,Lightning struck tree-From either 8/18 or 8/16 storm,44.85982,-119.5061,POINT (-119.5061 44.85982),USFS,8S,27E,21.0,SWNE,,Grant,EC1,Reg Use Closure,Does Not Apply - Eastern OR,08/19/2018 10:29:00 PM,08/20/2018 12:37:00 PM,08/20/2018 12:30:00 PM,08/24/2018 06:15:00 PM,08/20/2018 12:00:00 AM,09/21/2018 11:00:00 AM,95,952,040
11474,122122,STAT,2020,SOA,Western Lane,Veneta,20-781047-21,Kirk Rd #2,B,1.29,1.29,Human,Motorist,Equipment Use,Carbon Sparks from Vehicle,"Vehicle, passing motorist, human caused",44.12144,-123.30189,POINT (-123.30189 44.12144),Other Public,17S,5W,4.0,SENW,5.58 Miles NE of Veneta,Lane,WT1,Closed Fire Season Lvl 1,Lvl 4 Complete Shutdown,09/08/2020 04:34:00 PM,09/08/2020 04:34:00 PM,09/08/2020 04:34:00 PM,09/08/2020 08:50:00 PM,09/09/2020 12:00:00 AM,10/02/2020 03:55:00 PM,78,781,047
11476,117711,STAT,2020,SOA,Douglas - DFPA,DFPA South,20-732320-20,Pack Saddle,A,0.01,0.01,Human,Other-Public,Miscellaneous,Other - Miscellaneous Related,Burning mattress,43.0475,-123.19733,POINT (-123.19733 43.0475),BLM,29S,4W,17.0,NWSE,5.21 miles East of Myrtle Cree,Douglas,DG2,Outside Closed Fire Season,Outside Closed Fire Season,05/29/2020 09:00:00 AM,05/29/2020 09:50:00 AM,05/29/2020 09:45:00 AM,05/29/2020 12:00:00 PM,05/29/2020 12:00:00 AM,08/04/2020 09:13:00 PM,73,732,320
11481,120709,STAT,2020,EOA,Central Oregon,The Dalles,20-954028-21,White River,G,17404.9,5523.4,Lightning,Lightning,Lightning,Lightning,Lightning Strike,45.1815,-121.5756,POINT (-121.5756 45.1815),USFS,4S,10E,32.0,SENW,18 Miles West of Maupin,Wasco,MH1,Reg Use Closure,Does Not Apply - Eastern OR,08/15/2020 08:00:00 PM,08/17/2020 09:07:00 AM,08/17/2020 09:05:00 AM,10/30/2020 06:00:00 PM,08/27/2020 12:00:00 AM,10/01/2020 02:55:00 PM,95,954,028
11482,123832,STAT,2021,SOA,Douglas - DFPA,DFPA South,21-732481-21,Forty One,B,0.75,0.75,Human,Other-Landowner Related,Debris Burning,Unattended,,42.94222,-123.40417,POINT (-123.40417 42.94222),Other Private,30S,6W,22.0,SWSW,Riddle,Douglas,DG2,Outside Closed Fire Season,Outside Closed Fire Season,05/27/2021 03:25:00 PM,05/27/2021 03:25:00 PM,05/27/2021 03:25:00 PM,05/27/2021 06:10:00 PM,05/30/2021 12:00:00 AM,07/28/2021 07:05:00 PM,73,732,481
11484,127647,STAT,2021,SOA,Coos - CFPA,Coos Bay,21-721116-22,Carlson Heights Lane,A,0.01,0.01,Human,Public Utility,Equipment Use,Powerlines - Tree/branch outside right of way,,43.41778,-124.18,POINT (-124.18 43.41778),County,25S,13W,12.0,SENE,3 E North Bend,Coos,CS1,Reg Use Closure,Lvl 2 Limited Shutdown,08/31/2021 02:35:00 PM,08/31/2021 02:36:00 PM,08/31/2021 02:36:00 PM,08/31/2021 03:15:00 PM,09/01/2021 12:00:00 AM,10/29/2021 10:21:00 AM,72,721,116
11487,115260,STAT,2019,EOA,Klamath-Lake,Klamath,19-981013-20,Beaver Marsh 225,A,0.1,0.1,Human,Recreationist,Recreation,Warming Fire Unattended,Abandoned Campfire,43.18861,-121.78083,POINT (-121.78083 43.18861),Industrial,27S,8E,33.0,NWSE,Beaver Marsh Rest Area,Klamath,KF1,Reg Use Closure,Does Not Apply - Eastern OR,07/27/2019 12:48:00 PM,07/27/2019 12:49:00 PM,07/27/2019 12:49:00 PM,07/27/2019 02:00:00 PM,07/27/2019 12:00:00 AM,08/19/2019 12:18:00 PM,98,981,013
11494,110621,STAT,2018,SOA,Western Lane,Veneta,18-781097-18,Dugan Slash,A,0.01,0.01,Human,Other-Landowner Related,Debris Burning,Industrial- Slash-Holdover Prev. Burn(>90 days after ign.),Rekindle of slash burned in November 2017,43.76361,-123.09417,POINT (-123.09417 43.76361),Small Woodlands,21S,3W,7.0,NWNE,Boren Creek,Lane,WT1,Closed Fire Season Lvl 1,Lvl 1 Fire Season Only,06/30/2018 01:00:00 AM,06/30/2018 06:31:00 AM,06/30/2018 06:30:00 AM,06/30/2018 12:55:00 PM,06/30/2018 12:00:00 AM,06/30/2018 01:26:00 PM,78,781,097
11498,116682,STAT,2019,NOA,Astoria,Astoria,19-521045-20,Two Tone Fire,A,0.01,0.01,Human,Recreationist,Smoking,Discarded Cigarette/Tobacco,Most likely cause,46.16911,-123.56794,POINT (-123.56794 46.16911),State,8N,7W,21.0,NWNW,12.7 miles East of Astoria,Clatsop,NW1,Reg Use Closure,Lvl 1 Fire Season Only,09/05/2019 04:20:00 PM,09/05/2019 04:30:00 PM,09/05/2019 04:25:00 PM,09/05/2019 05:30:00 PM,09/07/2019 12:00:00 AM,09/07/2019 02:34:00 PM,52,521,045
11499,127769,STAT,2021,NOA,Forest Grove,Columbia City,21-532055-22,Bonnie Falls # 1,A,0.01,0.01,Human,Motorist,Equipment Use,Burning Vehicle or Equipment,Vehicle accident resulting in a car fire. Spread to wildland,45.80417,-122.93722,POINT (-122.93722 45.80417),County,4N,2W,28.0,SWNE,,Columbia,NW3,Reg Use Closure,Lvl 2 Limited Shutdown,09/06/2021 10:00:00 PM,09/06/2021 10:05:00 PM,09/06/2021 10:01:00 PM,09/06/2021 10:15:00 PM,09/06/2021 12:00:00 AM,12/16/2021 03:11:00 PM,53,532,055
11500,110164,STAT,2018,EOA,Central Oregon,Sisters,18-955107-18,Masten Rd #2 0282,A,0.01,0.01,Human,Ruralist-Paying,Debris Burning,Unattended,unattended debris burn,43.625,-121.59889,POINT (-121.59889 43.625),Rural Residential,22S,9E,25.0,SESW,4 miles Southwest of LaPine,Deschutes,WC2,Closed Fire Season Lvl 1,Does Not Apply - Eastern OR,05/31/2018 09:00:00 AM,06/01/2018 03:00:00 PM,06/01/2018 11:30:00 AM,06/01/2018 03:35:00 PM,06/01/2018 12:00:00 AM,08/13/2018 11:57:00 AM,95,955,107
11501,108612,STAT,2017,SOA,Douglas - DFPA,DFPA South,17-732075-18,Section Cr.,B,6.5,6.5,Lightning,Lightning,Lightning,Lightning,,42.84778,-122.8175,POINT (-122.8175 42.84778),USFS,31S,1W,27.0,SWNE,Tiller,Douglas,UA2,Reg Use Closure,Lvl 3 Restricted Shutdown,08/10/2017 03:00:00 AM,08/10/2017 06:00:00 AM,08/10/2017 06:00:00 AM,08/15/2017 07:00:00 PM,08/18/2017 12:00:00 AM,10/14/2017 11:19:00 AM,73,732,075
11502,111550,STAT,2018,SOA,Coos - CFPA,Coos Bay,18-721033-19,Davis Creek,A,0.1,0.1,Human,Other-Public,Smoking,Other - Smoker Related,,43.265,-124.26917,POINT (-124.26917 43.265),County,26S,13W,22.0,SWSE,7 NW Coquille,Coos,CS1,Reg Use Closure,Lvl 1 Fire Season Only,07/22/2018 05:30:00 PM,07/22/2018 05:40:00 PM,07/22/2018 05:35:00 PM,07/22/2018 07:30:00 PM,07/25/2018 12:00:00 AM,07/31/2018 04:32:00 PM,72,721,033
11505,109448,STAT,2017,SOA,Southwest Oregon,Medford,17-711369-18,Hwy 238 5091,A,0.1,0.1,Human,Recreationist,Equipment Use,Heat from Vehicle Manifold or Exhaust,New Tire tracks and witnesses heard a vehicle leave rapidly,42.27073,-123.0243,POINT (-123.0243 42.27073),BLM,38S,3W,14.0,NWNE,4.16 miles Southwest of Jackso,Jackson,SW1,Reg Use Closure,Lvl 3 Restricted Shutdown,09/16/2017 05:25:00 PM,09/16/2017 05:25:00 PM,09/16/2017 05:25:00 PM,09/19/2017 02:00:00 PM,09/16/2017 12:00:00 AM,09/16/2017 06:28:00 PM,71,711,369
11507,115403,STAT,2019,SOA,Southwest Oregon,Medford,19-711107-20,East Evans,D,155.0,155.0,Human,Other-Landowner Related,Miscellaneous,Burning Building,Spread to the wildland was caused by a structure fire,42.6,-123.00383,POINT (-123.00383 42.6),Small Woodlands,34S,3W,24.0,NWSE,9.77 miles West of Shady Cove,Jackson,SW2,Reg Use Closure,Lvl 2 Limited Shutdown,08/02/2019 01:55:00 PM,08/02/2019 01:55:00 PM,08/02/2019 01:55:00 PM,08/03/2019 01:47:00 PM,08/02/2019 12:00:00 AM,01/22/2020 01:17:00 PM,71,711,107
11508,110325,STAT,2018,SOA,Douglas - DFPA,DFPA South,18-732197-18,Formosa Mine,B,1.5,1.5,Human,Other Forest Mgt. Worker,Equipment Use,Industrial- Other - Logging Equipment Use,,42.89639,-123.35528,POINT (-123.35528 42.89639),Industrial,31S,6W,12.0,NWNE,Riddle,Douglas,DG2,Outside Closed Fire Season,Outside Closed Fire Season,06/04/2018 02:00:00 PM,06/04/2018 02:18:00 PM,06/04/2018 02:00:00 PM,06/04/2018 06:00:00 PM,06/12/2018 12:00:00 AM,06/28/2018 01:13:00 PM,73,732,197
11513,117239,STAT,2019,SOA,Douglas - DFPA,DFPA North,19-731297-20,Rattlesnake,A,0.01,0.01,Human,Recreationist,Recreation,"Campfire Left Unattended (camp site, cooking)",Small campfire left unattended on the landing,43.39078,-123.56088,POINT (-123.56088 43.39078),BLM,25S,7W,17.0,SESW,12.5 miles West of Sutherlin,Douglas,DG1,Outside Closed Fire Season,Outside Closed Fire Season,11/06/2019 11:30:00 AM,11/20/2019 01:45:00 PM,11/20/2019 01:30:00 PM,11/20/2019 05:00:00 PM,11/25/2019 12:00:00 AM,12/18/2019 02:11:00 PM,73,731,297
11514,110095,STAT,2018,EOA,Klamath-Lake,Klamath,18-981156-18,Chiloquin Camp 127,C,20.9,20.9,Lightning,Lightning,Lightning,Lightning,Lightning,43.04444,-121.76306,POINT (-121.76306 43.04444),Industrial,29S,8E,22.0,SWNW,4 miles SE of Diamond Lake Jct,Klamath,KF1,Outside Closed Fire Season,Does Not Apply - Eastern OR,05/16/2018 04:00:00 PM,05/22/2018 04:01:00 PM,05/16/2018 04:00:00 PM,05/29/2018 05:00:00 PM,05/22/2018 12:00:00 AM,05/25/2018 01:31:00 PM,98,981,156
11515,117509,STAT,2020,SOA,Douglas - DFPA,DFPA South,20-732309-20,Boomer Hill,A,0.01,0.01,Human,Recreationist,Recreation,Campfire Not Extinguished,Unextiguished campfire,43.00426,-123.39862,POINT (-123.39862 43.00426),Industrial,29S,6W,34.0,NESW,4.07 miles Northwest of Riddle,Douglas,DG1,Outside Closed Fire Season,Outside Closed Fire Season,05/02/2020 05:00:00 PM,05/03/2020 08:00:00 AM,05/02/2020 07:48:00 PM,05/03/2020 11:00:00 AM,05/08/2020 12:00:00 AM,07/15/2020 02:24:00 PM,73,732,309
11516,107914,STAT,2017,EOA,Klamath-Lake,Lakeview,17-982060-18,Whiskey Creek 409,A,0.1,0.1,Lightning,Lightning,Lightning,Lightning,Lightning struck tree,42.38472,-121.32944,POINT (-121.32944 42.38472),Small Woodlands,37S,12E,5.0,SWSW,4 mi E of Cline Flat Mt,Klamath,KF1,Reg Use Closure,Does Not Apply - Eastern OR,07/26/2017 11:00:00 AM,07/26/2017 11:30:00 AM,07/26/2017 11:15:00 AM,07/26/2017 02:40:00 PM,07/31/2017 12:00:00 AM,09/15/2017 09:20:00 AM,98,982,060
11518,112050,STAT,2018,SOA,Southwest Oregon,Grants Pass,18-712474-19,Rough & Ready #2,A,0.01,0.01,Human,Motorist,Equipment Use,"Other -Equipment Use Related (ie. road const., other i.c.e.)",Vehicle dragging a chain or some kind of metal,42.09097,-123.68463,POINT (-123.68463 42.09097),BLM,40S,8W,18.0,SENE,5.31 Miles South of CJ,Josephine,SW3,Reg Use Closure,Lvl 3 Restricted Shutdown,08/10/2018 09:00:00 AM,08/10/2018 09:09:00 AM,08/10/2018 09:05:00 AM,08/13/2018 11:45:00 AM,08/10/2018 12:00:00 AM,08/13/2018 09:06:00 PM,71,712,474
11523,126642,STAT,2021,SOA,Southwest Oregon,Grants Pass,21-712280-22,Granny Lane,A,0.01,0.01,Lightning,Lightning,Lightning,Lightning,Lightning,42.19378,-123.28563,POINT (-123.28563 42.19378),Other Private,39S,5W,10.0,SWNW,17.07 miles South of Grants Pa,Josephine,SW3,Reg Use Closure,Lvl 3 Restricted Shutdown,07/31/2021 05:00:00 PM,07/31/2021 05:00:00 PM,07/31/2021 05:00:00 PM,08/04/2021 11:33:00 AM,08/01/2021 12:00:00 AM,08/13/2021 04:18:00 PM,71,712,280
11525,109458,STAT,2017,SOA,Douglas - DFPA,DFPA South,17-732152-18,Arnold St.,A,0.1,0.1,Human,Public Utility,Equipment Use,Powerlines - Animal,Electrocuted bird,42.97139,-123.3275,POINT (-123.3275 42.97139),Rural Residential,30S,5W,7.0,SESE,Myrtle Creek,Douglas,DG2,Reg Use Closure,Lvl 3 Restricted Shutdown,09/17/2017 12:15:00 PM,09/17/2017 12:15:00 PM,09/17/2017 12:15:00 PM,09/17/2017 01:00:00 PM,09/17/2017 12:00:00 AM,09/23/2017 11:04:00 AM,73,732,152
11533,123742,STAT,2021,SOA,Southwest Oregon,Grants Pass,21-7120033-21,Spencer Creek,A,0.2,0.2,Human,Recreationist,Recreation,Campfire Not Extinguished,Campfire,42.30341,-123.34155,POINT (-123.34155 42.30341),Industrial,38S,5W,6.0,NENW,Hidden Valley High School,Josephine,SW3,Reg Use Closure,Lvl 1 Fire Season Only,05/21/2021 08:00:00 PM,05/21/2021 08:06:00 PM,05/21/2021 08:00:00 PM,05/25/2021 12:16:00 PM,05/22/2021 12:00:00 AM,06/01/2021 05:29:00 PM,71,712,A33
11534,127796,STAT,2021,NOA,North Cascade,Santiam,21-582028-22,54 Boulders,A,0.25,0.0,Human,Recreationist,Recreation,Other - Recreationist Related,CAUSE NOT DETERMINED - SPECULATION ONLY,44.70689,-122.09153,POINT (-122.09153 44.70689),USFS,10S,4E,17.0,NWSE,1 Mile west of Idanha,Marion,CM1,Reg Use Closure,Lvl 3 Restricted Shutdown,08/11/2021 06:30:00 PM,08/11/2021 06:39:00 PM,08/11/2021 06:30:00 PM,08/11/2021 10:00:00 PM,09/07/2021 12:00:00 AM,09/07/2021 04:12:00 PM,58,582,028
11539,123058,STAT,2020,SOA,Southwest Oregon,Grants Pass,20-712847-21,Speaker Rd,A,0.01,0.01,Human,Transient,Recreation,"Campfire Left Unattended (camp site, cooking)",Cooking fire escaped then spread to a trailer,42.71675,-123.29033,POINT (-123.29033 42.71675),BLM,33S,5W,9.0,NESE,6.9 mi E of Glendale,Josephine,SW3,Reg Use Closure,Lvl 1 Fire Season Only,10/24/2020 10:00:00 AM,10/24/2020 04:59:00 PM,10/24/2020 04:59:00 PM,10/27/2020 02:40:00 PM,10/24/2020 12:00:00 AM,11/02/2020 12:33:00 PM,71,712,847
11540,118241,STAT,2020,NOA,Forest Grove,Forest Grove,20-531002-21,Parsons Road Fire,B,0.43,0.43,Human,Recreationist,Recreation,"Campfire Left Unattended (camp site, cooking)",Abandoned campfire,45.59344,-123.22506,POINT (-123.22506 45.59344),Other Private,2N,4W,19.0,SWNE,"Hayward Cemetary, Beaver Creek",Washington,NW3,Closed Fire Season Lvl 1,Lvl 1 Fire Season Only,07/14/2020 03:00:00 PM,07/14/2020 03:15:00 PM,07/14/2020 03:15:00 PM,07/14/2020 08:30:00 PM,07/14/2020 12:00:00 AM,07/15/2020 03:16:00 PM,53,531,002
11541,124137,STAT,2021,SOA,Southwest Oregon,Medford,21-711514-21,Dennis Rd 11576,A,0.25,0.25,Human,Ruralist-Paying,Equipment Use,Heat from Vehicle Manifold or Exhaust,grass was ignited by person driving in dry grass,42.48468,-122.95052,POINT (-122.95052 42.48468),Rural Residential,35S,2W,33.0,SWNW,6.28 miles Northeast of Gold H,Jackson,SW1,Reg Use Closure,Lvl 1 Fire Season Only,06/19/2021 01:57:00 PM,06/19/2021 01:58:00 PM,06/19/2021 01:58:00 PM,06/19/2021 02:13:00 PM,06/19/2021 12:00:00 AM,07/26/2021 02:21:00 PM,71,711,514
11542,107952,STAT,2017,NOA,Astoria,Astoria,17-521015-18,John Day River Road,A,0.1,0.0,Human,Motorist,Equipment Use,Burning Vehicle or Equipment,,46.16409,-123.75136,POINT (-123.75136 46.16409),Rural Residential,8N,9W,24.0,SWNW,Jack Creek,Clatsop,NW1,Reg Use Closure,Lvl 1 Fire Season Only,07/31/2017 04:30:00 PM,07/31/2017 04:40:00 PM,07/31/2017 04:30:00 PM,07/31/2017 07:53:00 PM,08/01/2017 12:00:00 AM,08/01/2017 12:55:00 PM,52,521,015
11543,107663,STAT,2017,SOA,Western Lane,Veneta,17-781018-18,Hall 36,A,0.01,0.01,Human,Other-Landowner Related,Equipment Use,"Other -Equipment Use Related (ie. road const., other i.c.e.)",Weed eater use.,44.18444,-123.30278,POINT (-123.30278 44.18444),Rural Residential,16S,5W,16.0,NENW,,Lane,WT1,Reg Use Closure,Lvl 2 Limited Shutdown,07/26/2017 11:20:00 AM,07/26/2017 11:40:00 AM,07/26/2017 11:35:00 AM,07/26/2017 12:45:00 PM,07/26/2017 12:00:00 AM,07/28/2017 11:50:00 AM,78,781,018
11544,128398,STAT,2021,SOA,Southwest Oregon,Grants Pass,21-712698-22,Dick George 4464,A,0.01,0.01,Human,Other-Landowner Related,Equipment Use,Powerlines - Other,powerline  fell off pole onto grass below,42.10592,-123.60162,POINT (-123.60162 42.10592),Rural Residential,40S,8W,12.0,NESW,4.6 miles Southeast of Cave Ju,Josephine,SW3,Reg Use Closure,Lvl 1 Fire Season Only,10/15/2021 02:45:00 PM,10/15/2021 02:47:00 PM,10/15/2021 02:45:00 PM,10/18/2021 02:45:00 PM,10/15/2021 12:00:00 AM,10/20/2021 12:29:00 PM,71,712,698
11547,111877,STAT,2018,EOA,Central Oregon,The Dalles,18-954019-19,Kingsley Road,A,0.01,0.01,Human,Motorist,Equipment Use,Carbon Sparks from Vehicle,"Unable to determine cause, most likely vehicle exhaust",45.65778,-121.59556,POINT (-121.59556 45.65778),Small Woodlands,2N,10E,17.0,SWNE,5 Miles SW of Hood River,Hood River,MH4,Reg Use Closure,Lvl 3 Restricted Shutdown,08/02/2018 12:00:00 PM,08/02/2018 12:02:00 PM,08/02/2018 12:01:00 PM,08/02/2018 02:00:00 PM,08/02/2018 12:00:00 AM,08/27/2018 02:57:00 PM,95,954,019
11548,127997,STAT,2021,NOA,West Oregon,Dallas,21-552037-22,Lee Rd. Grass Fire,A,0.01,0.01,Human,Motorist,Equipment Use,Carbon Sparks from Vehicle,Most likely sparks from a passing motorist.,44.88014,-123.33537,POINT (-123.33537 44.88014),County,8S,5W,17.0,NWNW,2.85 miles South of Dallas,Polk,WO1,Reg Use Closure,Lvl 3 Restricted Shutdown,09/17/2021 01:20:00 PM,09/17/2021 01:25:00 PM,09/17/2021 01:25:00 PM,09/17/2021 01:42:00 PM,09/17/2021 12:00:00 AM,09/22/2021 02:16:00 PM,55,552,037
11549,112304,STAT,2018,EOA,Klamath-Lake,Lakeview,18-982036-19,Watson Creek 360,G,58753.0,12953.0,Under Invest,,Under Invest,,USFS LEO conducting investigation,42.64972,-120.8275,POINT (-120.8275 42.64972),USFS,34S,16E,4.0,SENE,Withers Cabin,Lake,KF2,Reg Use Closure,Does Not Apply - Eastern OR,08/15/2018 12:00:00 AM,08/15/2018 02:55:00 PM,08/15/2018 02:54:00 PM,11/27/2018 09:52:00 AM,08/19/2018 12:00:00 AM,12/18/2018 10:26:00 AM,98,982,036
11550,113967,STAT,2019,SOA,Southwest Oregon,Grants Pass,19-7120048-19,Jump Off Joe 8240,A,0.01,0.01,Human,Other-Public,Debris Burning,Inadequate Mop Up,"Operator didnâ€™t ignite pile, started in december",42.57094,-123.23155,POINT (-123.23155 42.57094),Industrial,34S,5W,36.0,NESE,9.8 miles N of RR,Josephine,SW3,Outside Closed Fire Season,Outside Closed Fire Season,12/01/2018 12:00:00 PM,05/09/2019 02:47:00 PM,05/09/2019 02:39:00 PM,05/13/2019 04:00:00 PM,05/09/2019 12:00:00 AM,05/16/2019 12:57:00 PM,71,712,A48
11551,118208,STAT,2020,SOA,Western Lane,Veneta,20-781003-21,Pepsi Fire,A,0.01,0.01,Human,Public Utility,Equipment Use,Landowner Electrical Service,Electrical Failure inside junction box,44.02037,-123.02847,POINT (-123.02847 44.02037),Other Private,18S,3W,10.0,SENE,1.18 Miles S of Springfield,Lane,WT1,Closed Fire Season Lvl 1,Lvl 1 Fire Season Only,07/12/2020 01:20:00 PM,07/12/2020 01:20:00 PM,07/12/2020 01:20:00 PM,07/12/2020 01:38:00 PM,07/12/2020 12:00:00 AM,07/26/2020 05:02:00 PM,78,781,003
11553,116273,STAT,2019,EOA,Central Oregon,Sisters,19-955066-20,Summit Springs 0816,B,0.3,0.3,Human,Hunter,Miscellaneous,Other - Miscellaneous Related,"No specific cause found, believe to be hunter/ recreationist",44.43889,-121.58444,POINT (-121.58444 44.43889),Industrial,13S,10E,18.0,SESW,8 miles North of Sisters,Jefferson,WC2,Reg Use Closure,Lvl 1 Fire Season Only,08/26/2019 12:00:00 AM,08/27/2019 06:54:00 AM,08/27/2019 12:00:00 AM,08/27/2019 02:55:00 PM,08/27/2019 12:00:00 AM,09/19/2019 11:35:00 AM,95,955,066
11556,112515,STAT,2018,SOA,Douglas - DFPA,DFPA South,18-732114-19,Murphy,B,2.0,2.0,Human,Motorist,Equipment Use,Burning Vehicle or Equipment,,42.74123,-123.3067,POINT (-123.3067 42.74123),BLM,32S,5W,33.0,SWSW,5.95 miles East of Glendale,Douglas,DG2,Reg Use Closure,Lvl 3 Restricted Shutdown,08/21/2018 06:20:00 PM,08/21/2018 06:20:00 PM,08/21/2018 06:20:00 PM,08/21/2018 10:24:00 PM,08/27/2018 12:00:00 AM,08/30/2018 10:50:00 AM,73,732,114
11558,119932,STAT,2020,EOA,Central Oregon,John Day,20-952032-21,Long Hollow,A,0.1,0.1,Lightning,Lightning,Lightning,Lightning,Lightning Struck pine,44.5975,-119.44972,POINT (-119.44972 44.5975),Agriculture,11S,28E,7.0,NESE,,Grant,EC2,Reg Use Closure,Does Not Apply - Eastern OR,08/05/2020 04:14:00 PM,08/05/2020 05:20:00 PM,08/05/2020 05:00:00 PM,08/05/2020 06:00:00 PM,08/06/2020 12:00:00 AM,08/14/2020 12:43:00 PM,95,952,032
11560,107532,STAT,2017,SOA,Southwest Oregon,Grants Pass,17-712135-18,N Applegate Rd. 15877,A,0.01,0.01,Human,Rancher-Farmer,Debris Burning,Inadequate Mop Up,old burn/slash pile that rekindled,42.27803,-123.20846,POINT (-123.20846 42.27803),Other Private,38S,4W,8.0,NWSW,11.06 Miles South of Rogue Riv,Jackson,SW3,Reg Use Closure,Lvl 2 Limited Shutdown,07/21/2017 06:00:00 AM,07/21/2017 07:11:00 AM,07/21/2017 06:30:00 AM,07/24/2017 12:38:00 PM,07/21/2017 12:00:00 AM,07/26/2017 05:21:00 PM,71,712,135
11564,117326,STAT,2020,SOA,Southwest Oregon,Grants Pass,20-712784-20,Speaker Road 1568,B,0.75,0.75,Human,Ruralist-Paying,Debris Burning,Inadequate Resources to Control,Rekindled slash pile with spread,42.71843,-123.33668,POINT (-123.33668 42.71843),Small Woodlands,33S,5W,7.0,SWNE,4.58 miles E of Glendale,Josephine,SW3,Outside Closed Fire Season,Outside Closed Fire Season,04/09/2020 12:00:00 PM,04/12/2020 02:30:00 PM,04/12/2020 02:25:00 PM,04/21/2020 10:33:00 AM,04/13/2020 12:00:00 AM,08/26/2020 12:12:00 PM,71,712,784
11566,117012,STAT,2019,SOA,Southwest Oregon,Medford,19-711334-20,Dead Indian Memorial,A,0.1,0.1,Human,Motorist,Equipment Use,Burning Vehicle or Equipment,Overheated vehicle igniting truck's engine compartment.,42.23713,-122.5205,POINT (-122.5205 42.23713),BLM,38S,3E,30.0,SWNW,10.13 miles East of Ashland,Jackson,SW2,Closed Fire Season Lvl 1,Lvl 1 Fire Season Only,09/25/2019 07:28:00 PM,09/25/2019 07:28:00 PM,09/25/2019 07:28:00 PM,09/28/2019 02:00:00 PM,10/02/2019 12:00:00 AM,10/02/2019 02:33:00 PM,71,711,334
11567,127197,STAT,2021,SOA,Douglas - DFPA,DFPA South,21-732187-22,Packard Cr.,C,18.65,18.65,Lightning,Lightning,Lightning,Lightning,,42.85595,-123.2295,POINT (-123.2295 42.85595),Industrial,31S,5W,24.0,SESE,5.58 miles Southeast of Canyon,Douglas,DG2,Reg Use Closure,Lvl 3 Restricted Shutdown,08/01/2021 08:00:00 PM,08/01/2021 10:48:00 PM,08/01/2021 10:30:00 PM,08/03/2021 09:00:00 AM,08/13/2021 12:00:00 AM,10/18/2021 03:34:00 PM,73,732,187
11575,111198,STAT,2018,SOA,Douglas - DFPA,DFPA South,18-732026-19,MP 110 I5 NB,A,0.1,0.1,Human,Motorist,Equipment Use,Burning Vehicle or Equipment,,43.04528,-123.33194,POINT (-123.33194 43.04528),State,29S,5W,18.0,NWSE,Myrtle Creek,Douglas,DG2,Reg Use Closure,Lvl 2 Limited Shutdown,07/12/2018 10:30:00 AM,07/12/2018 10:30:00 AM,07/12/2018 10:30:00 AM,07/12/2018 11:30:00 AM,07/18/2018 12:00:00 AM,08/09/2018 02:20:00 PM,73,732,026
11576,110553,STAT,2018,NOA,West Oregon,Philomath,18-551034-18,Summit Railroad,A,0.01,0.01,Human,Public Utility,Railroad,Other - Railroad Related,Wheel slipping on track,44.6518,-123.58812,POINT (-123.58812 44.6518),State,10S,7W,31.0,SWSE,13.34 miles Northwest of Philo,Benton,WO1,Closed Fire Season Lvl 1,Lvl 1 Fire Season Only,06/27/2018 01:00:00 PM,06/27/2018 01:15:00 PM,06/27/2018 01:10:00 PM,06/27/2018 02:00:00 PM,06/27/2018 12:00:00 AM,08/04/2018 04:52:00 PM,55,551,034
11578,107543,STAT,2017,SOA,Southwest Oregon,Grants Pass,17-712143-18,Stringer Gap Rd,A,0.01,0.01,Human,Ruralist-Paying,Recreation,Firearms - General,shooting,42.3763,-123.3884,POINT (-123.3884 42.3763),County,37S,6W,3.0,SESE,5.31 miles SW. of Grants Pass,Josephine,SW3,Reg Use Closure,Lvl 2 Limited Shutdown,07/22/2017 08:00:00 AM,07/22/2017 08:05:00 AM,07/22/2017 08:00:00 AM,07/25/2017 11:52:00 AM,07/22/2017 12:00:00 AM,07/25/2017 04:38:00 PM,71,712,143
11579,127983,STAT,2021,SOA,Southwest Oregon,Grants Pass,21-712546-22,Takilma Rd 7090,A,0.01,0.01,Human,Motorist,Equipment Use,Carbon Sparks from Vehicle,Carbon sparks from a passing vehicle,42.07947,-123.61303,POINT (-123.61303 42.07947),County,40S,8W,23.0,NENW,6.03 miles South of Cave Junct,Josephine,SW3,Reg Use Closure,Lvl 3 Restricted Shutdown,09/16/2021 04:30:00 PM,09/16/2021 04:35:00 PM,09/16/2021 04:35:00 PM,09/19/2021 10:48:00 AM,09/16/2021 12:00:00 AM,09/20/2021 12:45:00 PM,71,712,546
11580,115231,STAT,2019,SOA,Southwest Oregon,Medford,19-711090-20,Blackwell Rd 11420,A,0.1,0.1,Human,Other-Landowner Related,Miscellaneous,Burning Building,Structure that spread to wildland,42.42703,-123.02103,POINT (-123.02103 42.42703),Rural Residential,36S,3W,23.0,SWNE,1.75 miles East of Gold Hill,Jackson,SW1,Reg Use Closure,Lvl 2 Limited Shutdown,07/26/2019 07:01:00 PM,07/26/2019 07:03:00 PM,07/26/2019 07:02:00 PM,07/26/2019 07:13:00 PM,07/27/2019 12:00:00 AM,07/30/2019 02:32:00 PM,71,711,090
11582,113733,STAT,2018,SOA,South Cascade,Sweet Home,18-772087-19,Wiley Creek,A,0.01,0.01,Human,Other Forest Mgt. Worker,Debris Burning,Industrial- Slash-Other Slash Disposal After Burn,,44.28453,-122.42953,POINT (-122.42953 44.28453),Industrial,15S,3E,3.0,SESE,W206 Slash Burn Pile,Linn,LN1,Outside Closed Fire Season,Outside Closed Fire Season,11/06/2018 08:00:00 AM,11/11/2018 10:00:00 AM,11/11/2018 10:00:00 AM,11/14/2018 05:00:00 PM,11/13/2018 12:00:00 AM,11/13/2018 01:01:00 PM,77,772,087
11584,113875,STAT,2019,SOA,Southwest Oregon,Grants Pass,19-7120030-19,Griffen Park,A,0.1,0.1,Human,Recreationist,Debris Burning,Inadequate clearing,Inadequate clearing around campfire,42.45457,-123.48818,POINT (-123.48818 42.45457),BLM,36S,7W,11.0,SESW,8.24 miles W of GP,Josephine,SW3,Outside Closed Fire Season,Outside Closed Fire Season,04/16/2019 06:00:00 PM,04/18/2019 04:40:00 PM,04/18/2019 04:40:00 PM,04/22/2019 11:40:00 AM,05/02/2019 12:00:00 AM,05/02/2019 11:24:00 AM,71,712,A30
11585,123184,STAT,2020,EOA,Walker Range - WRFPA,Crescent,20-991251-20,Forest Meadows,A,0.0,0.0,Human,Ruralist-Paying,Debris Burning,Burn Barrel,,43.54167,-121.49947,POINT (-121.49947 43.54167),Rural Residential,3S,10E,35.0,NENW,Forest Meadows,Klamath,WC2,Closed Fire Season Lvl 1,Does Not Apply - Eastern OR,06/24/2020 07:00:00 PM,06/24/2020 07:35:00 PM,06/24/2020 07:15:00 PM,06/24/2020 08:10:00 PM,11/04/2020 12:00:00 AM,11/04/2020 08:51:00 AM,99,991,251
11587,121923,STAT,2020,SOA,South Cascade,Sweet Home,20-772046-21,Green Peter Peninsula,C,18.1,18.1,Human,Recreationist,Recreation,Fireworks,A person in a boat shooting flares,44.48878,-122.47783,POINT (-122.47783 44.48878),BLM,12S,3E,29.0,SWSW,14 miles east of Sweet H,Linn,LN1,Reg Use Closure,Lvl 3 Restricted Shutdown,08/29/2020 05:00:00 PM,08/29/2020 05:35:00 PM,08/29/2020 05:25:00 PM,09/21/2020 03:00:00 PM,09/04/2020 12:00:00 AM,09/16/2020 04:10:00 PM,77,772,046
11591,106632,STAT,2017,EOA,Northeast Oregon,Wallowa,17-974036-17,Grand Ronde,B,2.0,0.0,Lightning,Lightning,Lightning,Lightning,Lightning,45.7762,-117.7471,POINT (-117.7471 45.7762),USFS,4N,40E,36.0,NESE,,Union,NE2,Outside Closed Fire Season,Outside Closed Fire Season,06/04/2017 02:29:00 AM,06/06/2017 03:52:00 PM,06/06/2017 03:30:00 PM,06/20/2017 02:27:00 PM,06/12/2017 12:00:00 AM,10/18/2017 08:15:00 AM,97,974,036
11593,112995,STAT,2018,NOA,North Cascade,Molalla,18-581072-19,Ona Grass,B,4.5,4.5,Human,Rancher-Farmer,Debris Burning,Other - Burning Related,Escaped illegal bun pile.,45.13706,-122.59819,POINT (-122.59819 45.13706),Rural Residential,5S,2E,17.0,SWNW,.5mi SW Molalla,Clackamas,CM1,Reg Use Closure,Lvl 1 Fire Season Only,09/16/2018 02:30:00 PM,09/16/2018 02:45:00 PM,09/16/2018 02:45:00 PM,09/16/2018 03:15:00 PM,09/17/2018 12:00:00 AM,09/23/2018 01:36:00 PM,58,581,072
11596,123170,STAT,2020,SOA,Douglas - DFPA,DFPA Central,20-733345-21,Mellow Moon,A,0.25,0.25,Lightning,Lightning,Lightning,Lightning,LIGHTNING STRUCK TREE,43.48028,-122.78222,POINT (-122.78222 43.48028),Industrial,24S,1W,22.0,NENE,Glide,Douglas,DG1,Reg Use Closure,Lvl 3 Restricted Shutdown,09/19/2020 03:00:00 PM,09/20/2020 06:32:00 PM,09/20/2020 06:30:00 PM,09/21/2020 07:00:00 PM,11/02/2020 12:00:00 AM,11/02/2020 02:32:00 PM,73,733,345
11597,127485,STAT,2021,SOA,Douglas - DFPA,DFPA Central,21-733371-22,Swiftwater,A,0.01,0.01,Human,Other-Public,Miscellaneous,Other - Miscellaneous Related,Holdover from 2020 Archie Creek,43.31817,-123.01882,POINT (-123.01882 43.31817),BLM,26S,3W,11.0,SWSE,3.96 miles East of Glide,Douglas,DG1,Reg Use Closure,Lvl 3 Restricted Shutdown,09/08/2020 05:00:00 PM,08/25/2021 06:40:00 AM,08/25/2021 06:30:00 AM,08/25/2021 03:30:00 PM,08/25/2021 12:00:00 AM,09/14/2021 09:18:00 AM,73,733,371
11598,127187,STAT,2021,SOA,Douglas - DFPA,DFPA South,21-732212-22,Ike Butte,D,121.25,121.25,Lightning,Lightning,Lightning,Lightning,,42.88628,-123.19033,POINT (-123.19033 42.88628),Rural Residential,31S,3W,32.0,NWNW,9.51 miles Southwest of Tiller,Douglas,DG2,Reg Use Closure,Lvl 3 Restricted Shutdown,08/01/2021 06:00:00 PM,08/02/2021 02:35:00 PM,08/02/2021 02:30:00 PM,08/04/2021 12:00:00 PM,08/13/2021 12:00:00 AM,08/27/2021 11:04:00 AM,73,732,212
11600,107256,STAT,2017,SOA,Southwest Oregon,Grants Pass,17-712850-17,Bear Camp Overlook,A,0.01,0.01,Lightning,Lightning,Lightning,Lightning,Foothill Blvd Complex 6.25.17 1455,42.66242,-123.83475,POINT (-123.83475 42.66242),BLM,33S,10W,36.0,NENW,19.49 miles SE of Powers,Curry,SW3,Reg Use Closure,Lvl 1 Fire Season Only,06/25/2017 02:55:00 PM,06/28/2017 10:07:00 AM,06/28/2017 10:07:00 AM,07/01/2017 12:31:00 PM,07/10/2017 12:00:00 AM,07/10/2017 06:13:00 PM,71,712,850
11605,108362,STAT,2017,SOA,Southwest Oregon,Grants Pass,17-712308-18,Fielder,B,0.5,0.5,Lightning,Lightning,Lightning,Lightning,Reuben Complex,42.49823,-123.20975,POINT (-123.20975 42.49823),BLM,35S,4W,29.0,NWSW,4.71 Miles NW of RR,Jackson,SW3,Reg Use Closure,Lvl 3 Restricted Shutdown,08/09/2017 12:30:00 AM,08/09/2017 07:00:00 AM,08/09/2017 06:59:00 AM,08/15/2017 12:16:00 PM,08/12/2017 12:00:00 AM,08/19/2017 07:24:00 PM,71,712,308
11607,112367,STAT,2018,EOA,Northeast Oregon,La Grande,18-971018-19,Palmer,A,0.25,0.25,Lightning,Lightning,Lightning,Lightning,,45.62139,-117.88306,POINT (-117.88306 45.62139),Small Woodlands,2N,39E,25.0,NESW,,Union,UM1,Reg Use Closure,Does Not Apply - Eastern OR,08/20/2018 03:00:00 AM,08/21/2018 06:55:00 AM,08/21/2018 06:30:00 AM,08/21/2018 10:00:00 AM,08/21/2018 12:00:00 AM,09/25/2018 03:12:00 PM,97,971,018
11610,109831,STAT,2017,SOA,Douglas - DFPA,DFPA North,17-731174-18,Tom Folley,B,8.0,8.0,Human,Timber Harvest Worker,Debris Burning,Industrial- Slash-Failure to Construct Adequate Fire Break,,43.71528,-123.44833,POINT (-123.44833 43.71528),Industrial,21S,6W,30.0,SENE,Elkton,Douglas,DG1,Outside Closed Fire Season,Outside Closed Fire Season,10/18/2017 12:00:00 PM,10/18/2017 02:10:00 PM,10/18/2017 01:45:00 PM,10/18/2017 09:00:00 PM,10/19/2017 12:00:00 AM,11/03/2017 04:00:00 PM,73,731,174
11614,123351,STAT,2021,SOA,Western Lane,Veneta,21-781081-21,Chezem Road,A,0.0,0.0,Human,Other-Landowner Related,Debris Burning,Other - Burning Related,attended controlled debris burn,43.97898,-123.1597,POINT (-123.1597 43.97898),Other Private,18S,4W,27.0,NENW,6.22 Miles Southwest of Eugene,Lane,WT1,Outside Closed Fire Season,Outside Closed Fire Season,04/03/2021 01:00:00 PM,04/03/2021 01:37:00 PM,04/03/2021 01:00:00 PM,04/03/2021 01:37:00 PM,04/03/2021 12:00:00 AM,04/13/2021 08:50:00 AM,78,781,081
11615,112359,STAT,2018,EOA,Northeast Oregon,Wallowa,18-974017-19,Five Dollar,A,0.1,0.1,Lightning,Lightning,Lightning,Lightning,Lightning,45.69972,-117.52722,POINT (-117.52722 45.69972),Industrial,3N,42E,35.0,SWNE,Tamarack Canyon,Wallowa,NE2,Reg Use Closure,Does Not Apply - Eastern OR,08/20/2018 01:00:00 AM,08/20/2018 07:32:00 AM,08/20/2018 03:00:00 AM,08/20/2018 10:18:00 AM,08/21/2018 12:00:00 AM,09/29/2018 03:40:00 PM,97,974,017
11616,114777,STAT,2019,EOA,Klamath-Lake,Klamath,19-981005-20,Ruger 190,A,0.1,0.1,Human,Ruralist-Paying,Debris Burning,Other - Burning Related,15X15 Burn Pile,42.16222,-121.88389,POINT (-121.88389 42.16222),Rural Residential,39S,8E,20.0,NESE,Wyatt Lane & Ruger Road,Klamath,KF1,Closed Fire Season Lvl 1,Does Not Apply - Eastern OR,07/07/2019 08:00:00 AM,07/07/2019 10:43:00 AM,07/07/2019 10:43:00 AM,07/07/2019 02:44:00 PM,07/07/2019 12:00:00 AM,08/19/2019 12:38:00 PM,98,981,005
11617,116840,STAT,2019,SOA,Western Lane,Veneta,19-781055-20,Sleezer Creek,A,0.01,0.01,Human,Other-Landowner Related,Debris Burning,Burning During Poor Condition,Burning multiple debris piles during fire season.,43.76889,-123.35139,POINT (-123.35139 43.76889),Other Private,21S,6W,1.0,SESE,7.79 Miles North of Drian,Douglas,WT1,Reg Use Closure,Lvl 1 Fire Season Only,09/12/2019 01:00:00 PM,09/12/2019 01:50:00 PM,09/12/2019 01:50:00 PM,09/12/2019 04:30:00 PM,09/12/2019 12:00:00 AM,09/17/2019 09:23:00 AM,78,781,055
11622,114670,STAT,2019,SOA,Southwest Oregon,Medford,19-711011-20,Camp Baker rd 3132,A,0.25,0.25,Human,Other-Landowner Related,Miscellaneous,Burning Building,Structure Fire with Spread to Wildland,42.26492,-122.85272,POINT (-122.85272 42.26492),Other Private,38S,1W,17.0,NWSW,1.92 miles West of Phoenix,Jackson,SW1,Reg Use Closure,Lvl 1 Fire Season Only,07/04/2019 10:20:00 PM,07/04/2019 10:34:00 PM,07/04/2019 10:34:00 PM,07/04/2019 10:50:00 PM,07/04/2019 12:00:00 AM,08/17/2019 11:58:00 AM,71,711,011
11625,108218,STAT,2017,SOA,Southwest Oregon,Medford,17-711148-18,Emigrant,C,11.0,11.0,Lightning,Lightning,Lightning,Lightning,Lightning,42.14399,-122.58,POINT (-122.58 42.14399),Small Woodlands,39S,2E,30.0,NWNE,5.13 miles Southeast of Ashlan,Jackson,SW1,Reg Use Closure,Lvl 3 Restricted Shutdown,08/07/2017 08:05:00 PM,08/07/2017 08:06:00 PM,08/07/2017 08:06:00 PM,08/10/2017 07:31:00 AM,08/09/2017 12:00:00 AM,09/19/2017 09:27:00 AM,71,711,148
11627,109032,STAT,2017,SOA,Southwest Oregon,Medford,17-711298-18,HWY 62 23611,A,0.25,0.25,Human,Ruralist-Paying,Miscellaneous,Burning Building,Structure fire spread to wildland,42.63805,-122.81288,POINT (-122.81288 42.63805),Rural Residential,34S,1W,3.0,SESW,1.83 miles North of Shady Cove,Jackson,SW2,Reg Use Closure,Lvl 3 Restricted Shutdown,09/01/2017 03:37:00 PM,09/01/2017 03:37:00 PM,09/01/2017 03:37:00 PM,09/04/2017 03:00:00 PM,09/01/2017 12:00:00 AM,09/03/2017 12:27:00 PM,71,711,298
11629,117687,STAT,2020,EOA,Klamath-Lake,Lakeview,20-982038-20,Gunsite 133,B,2.54,2.54,Human,Ruralist-Paying,Debris Burning,Unattended,"Slash disposal issues, failure to adequately mop-up",42.39583,-121.24639,POINT (-121.24639 42.39583),Rural Residential,37S,12E,1.0,NENW,Brown Creek,Klamath,KF2,Outside Closed Fire Season,Does Not Apply - Eastern OR,05/19/2020 10:00:00 AM,05/23/2020 04:41:00 PM,05/23/2020 04:38:00 PM,05/24/2020 04:00:00 PM,05/27/2020 12:00:00 AM,12/13/2020 12:30:00 PM,98,982,038
11630,127071,STAT,2021,SOA,Douglas - DFPA,DFPA South,21-732232-22,Headwater,A,0.24,0.24,Lightning,Lightning,Lightning,Lightning,,42.87278,-123.19,POINT (-123.19 42.87278),BLM,31S,4W,17.0,SESE,,Douglas,DG2,Reg Use Closure,Lvl 3 Restricted Shutdown,08/01/2021 06:03:00 PM,08/03/2021 04:00:00 PM,08/03/2021 12:00:00 PM,08/19/2021 12:00:00 PM,08/11/2021 12:00:00 AM,10/25/2021 08:23:00 AM,73,732,232
11631,109285,STAT,2017,NOA,North Cascade,Santiam,17-582040-18,Halls End Fire,A,0.25,0.25,Lightning,Lightning,Lightning,Lightning,,44.70864,-122.21883,POINT (-122.21883 44.70864),State,10S,5E,17.0,SENE,4mi SW Detroit,Marion,CM1,Reg Use Closure,Lvl 3 Restricted Shutdown,09/08/2017 03:00:00 AM,09/09/2017 03:30:00 PM,09/09/2017 02:30:00 PM,09/10/2017 04:00:00 PM,09/10/2017 12:00:00 AM,09/29/2017 09:18:00 AM,58,582,040
11632,107511,STAT,2017,EOA,Northeast Oregon,Baker,17-972003-18,Bridgeport Field,A,0.25,0.25,Human,Other-Landowner Related,Equipment Use,Burning Vehicle or Equipment,Swather fire in hay field,44.49192,-117.73689,POINT (-117.73689 44.49192),Other Private,12S,41E,30.0,NWSE,Three Valley's Ranch,Baker,NE3,Reg Use Closure,Does Not Apply - Eastern OR,07/20/2017 11:45:00 AM,07/20/2017 11:50:00 AM,07/20/2017 11:50:00 AM,07/20/2017 01:00:00 PM,07/20/2017 12:00:00 AM,08/05/2017 07:05:00 PM,97,972,003
11635,109311,STAT,2017,SOA,Coos - CFPA,Coos Bay,17-721069-18,Seven Devils Rd #2,A,0.25,0.25,Human,Recreationist,Smoking,Discarded Cigarette/Tobacco,,43.34778,-124.345,POINT (-124.345 43.34778),Industrial,26S,14W,4.0,NWNW,3 W Coos Bay,Coos,CS1,Closed Fire Season Lvl 1,Lvl 1 Fire Season Only,08/01/2017 02:00:00 PM,08/20/2017 08:28:00 PM,08/19/2017 07:30:00 PM,08/20/2017 01:00:00 AM,09/11/2017 12:00:00 AM,09/15/2017 04:45:00 PM,72,721,069
11636,108033,STAT,2017,NOA,Forest Grove,Columbia City,17-532019-18,Goble Landing #1,A,0.01,0.01,Human,Motorist,Smoking,Discarded Cigarette/Tobacco,,46.01628,-122.87503,POINT (-122.87503 46.01628),Other Private,6N,2W,12.0,NWSE,Goble Landing,Columbia,NW3,Reg Use Closure,Lvl 3 Restricted Shutdown,08/03/2017 03:20:00 PM,08/03/2017 03:27:00 PM,08/03/2017 03:27:00 PM,08/03/2017 03:38:00 PM,08/03/2017 12:00:00 AM,08/07/2017 03:03:00 PM,53,532,019
11639,106638,STAT,2017,SOA,Douglas - DFPA,DFPA South,17-732226-17,Middle Silver,A,0.1,0.1,Human,Recreationist,Recreation,Other - Recreationist Related,,42.90361,-123.3675,POINT (-123.3675 42.90361),Industrial,31S,6W,2.0,NESE,Riddle,Douglas,DG2,Outside Closed Fire Season,Outside Closed Fire Season,06/09/2017 10:00:00 PM,06/12/2017 03:23:00 PM,06/12/2017 03:00:00 PM,06/14/2017 12:00:00 PM,06/13/2017 12:00:00 AM,06/14/2017 02:05:00 PM,73,732,226
11640,126819,STAT,2021,SOA,Southwest Oregon,Medford,21-711184-22,Rock Creek,B,1.0,1.0,Lightning,Lightning,Lightning,Lightning,,42.71638,-123.0465,POINT (-123.0465 42.71638),Industrial,33S,3W,10.0,NESW,13.93 miles Northwest of Shady,Jackson,SW2,Reg Use Closure,Lvl 3 Restricted Shutdown,07/29/2021 04:40:00 PM,08/01/2021 07:17:00 PM,08/01/2021 07:06:00 PM,08/07/2021 12:00:00 PM,08/06/2021 12:00:00 AM,08/12/2021 04:55:00 PM,71,711,184
11641,122269,STAT,2020,SOA,Douglas - DFPA,DFPA Central,20-733296-21,French Creek,E,495.0,495.0,Human,Public Utility,Equipment Use,Powerlines - Tree/branch outside right of way,Powerlines,43.31333,-123.12028,POINT (-123.12028 43.31333),Agriculture,26S,4W,13.0,NENW,,Douglas,DG1,Reg Use Closure,Lvl 4 Complete Shutdown,09/07/2020 11:45:00 PM,09/08/2020 01:15:00 AM,09/08/2020 01:15:00 AM,09/15/2020 11:07:00 AM,09/12/2020 12:00:00 AM,11/06/2020 09:53:00 AM,73,733,296
11644,120652,STAT,2020,EOA,Central Oregon,John Day,20-952087-21,Antelope,A,0.1,0.1,Lightning,Lightning,Lightning,Lightning,Lightning Strike,44.03278,-119.38306,POINT (-119.38306 44.03278),Other Private,18S,28E,5.0,SWSE,21.2 miles W of Seneca,Grant,MA2,Reg Use Closure,Does Not Apply - Eastern OR,08/25/2020 03:45:00 AM,08/25/2020 04:26:00 PM,08/25/2020 04:25:00 PM,08/25/2020 05:15:00 PM,08/25/2020 12:00:00 AM,09/01/2020 04:44:00 PM,95,952,087
11645,108401,STAT,2017,EOA,Northeast Oregon,Wallowa,17-974019-18,Pine,B,2.0,2.0,Lightning,Lightning,Lightning,Lightning,Lightning,45.74167,-117.72917,POINT (-117.72917 45.74167),Industrial,3N,41E,18.0,SENE,Howard Butte,Wallowa,NE2,Reg Use Closure,Does Not Apply - Eastern OR,08/12/2017 06:29:00 PM,08/12/2017 07:52:00 PM,08/12/2017 07:45:00 PM,08/28/2017 01:05:00 PM,08/13/2017 12:00:00 AM,10/14/2017 01:14:00 PM,97,974,019
11646,108780,STAT,2017,EOA,Klamath-Lake,Lakeview,17-982092-18,Pinecrest 556,A,0.1,0.1,Lightning,Lightning,Lightning,Lightning,Lightning struck pine,42.37861,-121.08,POINT (-121.08 42.37861),Other Private,37S,14E,8.0,NENE,Pinecrest,Klamath,KF1,Reg Use Closure,Does Not Apply - Eastern OR,08/22/2017 12:00:00 PM,08/22/2017 08:03:00 PM,08/22/2017 07:50:00 PM,08/23/2017 09:30:00 AM,08/23/2017 12:00:00 AM,11/17/2017 02:22:00 PM,98,982,092
11647,113778,STAT,2018,NOA,Forest Grove,Forest Grove,18-531084-19,Old Lousignont Slash,A,0.1,0.1,Human,Other-Landowner Related,Debris Burning,Industrial- Slash-Holdover Prev. Burn(>90 days after ign.),,45.74139,-123.36222,POINT (-123.36222 45.74139),State,3N,6W,13.0,NESE,Old Lousignont/Marshall Rd,Tillamook,NW3,Outside Closed Fire Season,Outside Closed Fire Season,11/16/2018 04:40:00 PM,11/16/2018 04:49:00 PM,11/16/2018 04:45:00 PM,11/16/2018 06:32:00 PM,11/16/2018 12:00:00 AM,04/01/2019 02:22:00 PM,53,531,084
11648,114212,STAT,2019,SOA,Douglas - DFPA,DFPA North,19-731219-19,Oak Hill Rd.,A,0.1,0.1,Human,Other-Landowner Related,Debris Burning,Other - Burning Related,Debris Burn,43.35683,-123.4272,POINT (-123.4272 43.35683),Rural Residential,25S,6W,32.0,SENE,6.21 miles West of Sutherlin,Douglas,DG1,Outside Closed Fire Season,Outside Closed Fire Season,06/10/2019 05:45:00 PM,06/10/2019 06:00:00 PM,06/10/2019 05:45:00 PM,06/10/2019 06:15:00 PM,06/10/2019 12:00:00 AM,06/19/2019 08:49:00 AM,73,731,219
11649,123356,STAT,2021,SOA,Southwest Oregon,Medford,21-711418-21,Elk Creek Rd 11245,A,0.1,0.1,Human,Recreationist,Recreation,"Malfunction of Camp Appliance Fuel (Lantern,etc)",spilt fuel on generator within RV ignited fire,42.77447,-122.67145,POINT (-122.67145 42.77447),Small Woodlands,32S,1E,23.0,SENW,13.35 miles Northeast of Shady,Jackson,SW2,Outside Closed Fire Season,Outside Closed Fire Season,04/12/2021 07:00:00 PM,04/12/2021 07:00:00 PM,04/12/2021 07:00:00 PM,04/13/2021 10:30:00 AM,04/13/2021 12:00:00 AM,04/21/2021 04:32:00 PM,71,711,418
11651,118382,STAT,2020,EOA,Central Oregon,Sisters,20-955021-21,HWY 20   0450,A,0.1,0.1,Human,Other-Public,Equipment Use,"Other -Equipment Use Related (ie. road const., other i.c.e.)",trailer brakes that spread to brush on the side of the road,44.24667,-121.48056,POINT (-121.48056 44.24667),State,15S,10E,25.0,NWNE,3 miles South of Sisters,Deschutes,WC2,Reg Use Closure,Outside Closed Fire Season,07/21/2020 01:30:00 PM,07/21/2020 01:36:00 PM,07/21/2020 01:30:00 PM,07/21/2020 02:28:00 PM,07/22/2020 12:00:00 AM,08/05/2020 02:48:00 PM,95,955,021
11652,118345,STAT,2020,SOA,Southwest Oregon,Grants Pass,20-712086-21,Redwood Hwy 23121,A,0.01,0.01,Human,Motorist,Equipment Use,Burning Vehicle or Equipment,Vehicle crash ignited flashy fuels beneath,42.20592,-123.64848,POINT (-123.64848 42.20592),Municipal,38S,8W,33.0,SWSE,3.54 mi N of Cave Junction,Josephine,SW3,Closed Fire Season Lvl 1,Lvl 2 Limited Shutdown,07/20/2020 11:00:00 AM,07/20/2020 11:03:00 AM,07/20/2020 11:00:00 AM,07/20/2020 12:47:00 PM,07/20/2020 12:00:00 AM,07/23/2020 02:30:00 PM,71,712,086
11653,107091,STAT,2017,EOA,Central Oregon,Prineville,17-951003-18,View Point,A,0.25,0.25,Human,Other-Public,Recreation,Fireworks,Fireworks display- City of Prineville,44.29917,-120.86639,POINT (-120.86639 44.29917),State,15S,16E,6.0,SWNW,Prineville,Crook,WC1,Reg Use Closure,Does Not Apply - Eastern OR,07/04/2017 10:15:00 PM,07/04/2017 10:20:00 PM,07/04/2017 10:15:00 PM,07/05/2017 12:30:00 AM,07/05/2017 12:00:00 AM,07/12/2017 12:40:00 PM,95,951,003
11654,107529,STAT,2017,NOA,North Cascade,Molalla,17-581020-18,Upper Highland Pile,A,0.04,0.04,Human,Other-Landowner Related,Debris Burning,"Burning Prohibited Material (rubber, plastic, etc.See Manual",Family of LO though they could burn trash with an ag permit.,45.24172,-122.38969,POINT (-122.38969 45.24172),Rural Residential,4S,3E,12.0,NWNW,3.5mi SW Estacada,Clackamas,CM1,Reg Use Closure,Lvl 1 Fire Season Only,07/21/2017 04:30:00 PM,07/21/2017 04:40:00 PM,07/21/2017 04:40:00 PM,07/21/2017 07:00:00 PM,07/21/2017 12:00:00 AM,07/21/2017 06:08:00 PM,58,581,020
11658,116433,STAT,2019,SOA,Douglas - DFPA,DFPA North,19-731186-20,Oak Hill Rd,A,0.25,0.25,Human,Public Utility,Equipment Use,Powerlines - Tree/branch within right of way,,43.36333,-123.42889,POINT (-123.42889 43.36333),Other Private,25S,6W,32.0,NENE,Sutherlin,Douglas,DG1,Reg Use Closure,Lvl 2 Limited Shutdown,08/29/2019 03:00:00 PM,08/29/2019 03:24:00 PM,08/29/2019 03:20:00 PM,08/29/2019 04:57:00 PM,09/02/2019 12:00:00 AM,09/22/2019 01:58:00 PM,73,731,186
11659,122697,STAT,2020,EOA,Northeast Oregon,La Grande,20-971038-21,Thompson,A,0.1,0.1,Human,Public Utility,Equipment Use,Powerlines - Weather,Tree blew into powerline,45.66972,-117.78778,POINT (-117.78778 45.66972),Small Woodlands,2N,40E,10.0,SENE,,Union,NE3,Reg Use Closure,Does Not Apply - Eastern OR,09/07/2020 04:45:00 PM,09/07/2020 04:51:00 PM,09/07/2020 04:49:00 PM,09/07/2020 07:58:00 PM,09/27/2020 12:00:00 AM,10/15/2020 08:06:00 AM,97,971,038
11660,107171,STAT,2017,SOA,Southwest Oregon,Grants Pass,17-712018-18,Williams Hwy 5589,A,0.01,0.01,Human,Recreationist,Recreation,Fireworks,discarded from moving vehicle,42.36122,-123.33227,POINT (-123.33227 42.36122),State,37S,5W,7.0,SWSE,5.37 miles S of GP,Josephine,SW3,Reg Use Closure,Lvl 1 Fire Season Only,07/05/2017 12:35:00 AM,07/05/2017 12:40:00 AM,07/05/2017 12:40:00 AM,07/07/2017 01:04:00 PM,07/07/2017 12:00:00 AM,07/11/2017 04:28:00 PM,71,712,018
11661,117020,STAT,2019,SOA,Southwest Oregon,Grants Pass,19-712689-20,Quartz Crk,A,0.01,0.01,Human,Other-Public,Debris Burning,Unattended,,42.56683,-123.46772,POINT (-123.46772 42.56683),Industrial,34S,7W,36.0,SESE,11.33 miles NW of GP,Josephine,SW3,Reg Use Closure,Lvl 1 Fire Season Only,09/27/2019 07:00:00 AM,09/27/2019 07:08:00 AM,09/27/2019 07:05:00 AM,09/30/2019 11:48:00 AM,09/27/2019 12:00:00 AM,10/01/2019 11:31:00 AM,71,712,689
11663,115619,STAT,2019,EOA,Central Oregon,John Day,19-952041-20,Stone Gulch,B,1.3,1.3,Lightning,Lightning,Lightning,Lightning,,44.77222,-119.20333,POINT (-119.20333 44.77222),Other Private,9S,29E,23.0,NWSW,6 mi NW long Creek,Grant,EC2,Reg Use Closure,Does Not Apply - Eastern OR,08/07/2019 05:50:00 PM,08/07/2019 05:54:00 PM,08/07/2019 05:50:00 PM,08/07/2019 06:42:00 PM,08/08/2019 12:00:00 AM,08/15/2019 11:04:00 AM,95,952,041
11665,123862,STAT,2021,SOA,Western Lane,Veneta,21-781116-21,High Pass 12.5 B,A,0.01,0.01,Human,Other-Public,Arson,Other - Arson Related,Person cut locked gate then lit a fire that spread to reprod,44.2287,-123.41046,POINT (-123.41046 44.2287),Industrial,15S,6W,34.0,NWNW,8.16 Miles SW of Monroe,Lane,WT1,Outside Closed Fire Season,Outside Closed Fire Season,05/29/2021 04:00:00 PM,05/29/2021 04:00:00 PM,05/29/2021 04:00:00 PM,05/29/2021 06:30:00 PM,05/29/2021 12:00:00 AM,06/01/2021 10:56:00 AM,78,781,116
11667,126687,STAT,2021,EOA,Central Oregon,Prineville,21-951013-22,Keller Springs  0726,B,1.7,1.7,Lightning,Lightning,Lightning,Lightning,lightning struck Pine,44.58972,-120.53583,POINT (-120.53583 44.58972),Small Woodlands,11S,18E,26.0,SENW,Opal Mt,Jefferson,WC1,Reg Use Closure,Does Not Apply - Eastern OR,08/02/2021 02:40:00 PM,08/02/2021 02:54:00 PM,08/02/2021 02:52:00 PM,08/05/2021 03:00:00 PM,08/03/2021 12:00:00 AM,08/05/2021 10:49:00 AM,95,951,013
11669,107809,STAT,2017,SOA,Douglas - DFPA,DFPA Central,17-733040-18,Happy Valley Rd.,B,5.05,5.05,Human,Ruralist-Paying,Miscellaneous,Hot Ashes (Dumping of),,43.15528,-123.45611,POINT (-123.45611 43.15528),Other Private,28S,6W,7.0,SWNW,Winston,Douglas,DG1,Reg Use Closure,Lvl 2 Limited Shutdown,07/26/2017 10:00:00 PM,07/27/2017 09:08:00 AM,07/27/2017 09:07:00 AM,07/27/2017 11:30:00 AM,07/28/2017 12:00:00 AM,07/28/2017 01:19:00 PM,73,733,040
11670,106519,STAT,2017,EOA,Klamath-Lake,Lakeview,17-982033-17,Paddock 122,B,1.88,1.88,Human,Rancher-Farmer,Debris Burning,Other - Burning Related,Hold over from burning in the fall.,42.27972,-121.13667,POINT (-121.13667 42.27972),Small Woodlands,38S,13E,14.0,NENE,4mi N Gerber Res.,Klamath,KF1,Outside Closed Fire Season,Does Not Apply - Eastern OR,05/27/2017 10:00:00 AM,05/27/2017 01:30:00 PM,05/27/2017 01:00:00 PM,05/27/2017 10:00:00 PM,05/31/2017 12:00:00 AM,03/07/2018 03:23:00 PM,98,982,033
11671,113131,STAT,2018,SOA,Southwest Oregon,Medford,18-711424-19,Fordyce St 520,A,0.01,0.0,Human,Other-Landowner Related,Miscellaneous,Burning Building,Spread from burning structure.,42.19804,-122.69432,POINT (-122.69432 42.19804),Rural Residential,39S,1E,10.0,NWNW,0.81 miles East of Ashland,Jackson,SW1,Reg Use Closure,Lvl 3 Restricted Shutdown,09/25/2018 12:37:00 PM,09/25/2018 12:37:00 PM,09/25/2018 12:37:00 PM,09/28/2018 02:00:00 PM,09/30/2018 12:00:00 AM,09/30/2018 09:56:00 AM,71,711,424
11674,116585,STAT,2019,SOA,South Cascade,Eastern Lane,19-771084-20,La Lone,A,0.01,0.01,Lightning,Lightning,Lightning,Lightning,,44.13747,-122.88862,POINT (-122.88862 44.13747),Agriculture,16S,2W,35.0,SENE,90930 La Lone Rd,Lane,EL1,Reg Use Closure,Lvl 2 Limited Shutdown,09/05/2019 04:22:00 PM,09/05/2019 06:06:00 PM,09/05/2019 06:05:00 PM,09/05/2019 06:22:00 PM,09/06/2019 12:00:00 AM,09/10/2019 03:26:00 PM,77,771,084
11676,116380,STAT,2019,EOA,Klamath-Lake,Klamath,19-981052-20,Grizzly 317,A,0.2,0.2,Human,Other-Public,Under Invest,,Investigation on going,42.30833,-121.36944,POINT (-121.36944 42.30833),Other Private,38S,11E,1.0,NWNW,E. Oriole Drive,Klamath,KF1,Reg Use Closure,Does Not Apply - Eastern OR,08/30/2019 11:00:00 PM,08/30/2019 11:19:00 PM,08/30/2019 11:00:00 PM,08/31/2019 12:42:00 PM,08/31/2019 12:00:00 AM,09/17/2019 01:26:00 PM,98,981,052
11677,116026,STAT,2019,SOA,Western Lane,Veneta,19-781028-20,Restwell Burn,B,1.01,1.01,Human,Other-Landowner Related,Equipment Use,Power Saw (Not in Forest Operation),,43.99139,-123.22111,POINT (-123.22111 43.99139),Other Private,18S,4W,19.0,SENW,7.58 miles SE of Veneta,Lane,WT1,Closed Fire Season Lvl 1,Lvl 2 Limited Shutdown,08/13/2019 12:00:00 PM,08/17/2019 04:56:00 PM,08/17/2019 04:56:00 PM,08/17/2019 10:44:00 PM,08/18/2019 12:00:00 AM,09/10/2019 12:43:00 PM,78,781,028
11678,111419,STAT,2018,SOA,Southwest Oregon,Grants Pass,18-712204-19,Hinkle Gulch,A,0.01,0.01,Lightning,Lightning,Lightning,Lightning,Lightning,42.24068,-123.15633,POINT (-123.15633 42.24068),BLM,38S,4W,27.0,NWNE,10.93 miles SW of Jacksonville,Josephine,SW3,Reg Use Closure,Lvl 2 Limited Shutdown,07/15/2018 09:00:00 AM,07/15/2018 01:00:00 PM,07/15/2018 01:00:00 PM,07/22/2018 01:37:00 PM,07/22/2018 12:00:00 AM,08/01/2018 01:38:00 PM,71,712,204
11679,109675,STAT,2017,NOA,West Oregon,Philomath,17-551024-18,Winney Rd.,A,0.08,0.08,Human,Ruralist-Paying,Equipment Use,Mowing - Residential,Significant other was mowing with riding mower.,44.37158,-123.65152,POINT (-123.65152 44.37158),Small Woodlands,14S,8W,10.0,NWNW,17685 Alsea Hwy.,Benton,WO1,Closed Fire Season Lvl 1,Lvl 1 Fire Season Only,10/04/2017 02:15:00 PM,10/04/2017 02:40:00 PM,10/04/2017 02:15:00 PM,10/04/2017 03:15:00 PM,10/04/2017 12:00:00 AM,10/09/2017 02:03:00 PM,55,551,024
11680,118681,STAT,2020,SOA,Southwest Oregon,Medford,20-711081-21,I5 MM 9,A,0.01,0.0,Human,Motorist,Equipment Use,Carbon Sparks from Vehicle,Catalytic converter threw sparks,42.12153,-122.6252,POINT (-122.6252 42.12153),State,40S,2E,6.0,SENE,6.64 miles Southeast of Ashlan,Jackson,SW1,Reg Use Closure,Lvl 2 Limited Shutdown,07/27/2020 07:05:00 AM,07/27/2020 07:12:00 AM,07/27/2020 07:06:00 AM,07/27/2020 07:34:00 AM,07/29/2020 12:00:00 AM,08/07/2020 03:51:00 PM,71,711,081
11681,123859,STAT,2021,SOA,South Cascade,Sweet Home,21-772108-21,High Deck 107,A,0.01,0.01,Human,Other-Landowner Related,Miscellaneous,Other - Miscellaneous Related,House Fire,44.39331,-122.5107,POINT (-122.5107 44.39331),Other Private,13S,2E,36.0,NWSE,Cascadia Ranger Station,Linn,LN1,Outside Closed Fire Season,Outside Closed Fire Season,05/31/2021 08:15:00 PM,05/31/2021 08:30:00 PM,05/31/2021 08:30:00 PM,05/31/2021 09:00:00 PM,06/01/2021 12:00:00 AM,06/04/2021 02:21:00 PM,77,772,108
11683,107600,STAT,2017,SOA,Douglas - DFPA,DFPA South,17-732034-18,Coffee Cup,B,6.5,6.5,Human,Recreationist,Recreation,Firearms - Ammunition,,42.93944,-123.00352,POINT (-123.00352 42.93944),Industrial,30S,3W,25.0,SENE,Milo,Douglas,DG2,Reg Use Closure,Lvl 2 Limited Shutdown,07/23/2017 04:40:00 PM,07/23/2017 04:57:00 PM,07/23/2017 04:54:00 PM,08/23/2017 12:00:00 PM,07/24/2017 12:00:00 AM,07/26/2017 02:29:00 PM,73,732,034
11684,120043,STAT,2020,NOA,West Oregon,Dallas,20-552011-21,Limestone,A,0.01,0.01,Human,Motorist,Equipment Use,Carbon Sparks from Vehicle,Most likely carbon from vehicle exhaust.,44.87481,-123.375,POINT (-123.375 44.87481),Rural Residential,8S,6W,13.0,NWSW,3.05 miles East of Falls City,Polk,WO3,Reg Use Closure,Lvl 2 Limited Shutdown,08/09/2020 05:09:00 PM,08/09/2020 05:13:00 PM,08/09/2020 05:12:00 PM,08/09/2020 05:14:00 PM,08/09/2020 12:00:00 AM,08/18/2020 04:11:00 PM,55,552,011
11687,123990,STAT,2021,SOA,Douglas - DFPA,DFPA South,21-732504-21,Green Springs,B,0.5,0.5,Human,Public Utility,Equipment Use,"Powerlines - Power pole malfunction (transformer, fuse, etc.",,42.96817,-123.19176,POINT (-123.19176 42.96817),Other Private,30S,4W,17.0,NENE,5.34 miles Northeast of Canyon,Douglas,DG2,Reg Use Closure,Lvl 1 Fire Season Only,06/08/2021 04:28:00 PM,06/08/2021 04:34:00 PM,06/08/2021 04:28:00 PM,06/08/2021 06:30:00 PM,06/09/2021 12:00:00 AM,07/09/2021 07:56:00 PM,73,732,504
11691,109727,STAT,2017,SOA,Southwest Oregon,Grants Pass,17-712657-18,Board Shanty 1535,A,0.25,0.25,Human,Other-Public,Equipment Use,Burning Vehicle or Equipment,RV fire,42.36388,-123.29338,POINT (-123.29338 42.36388),Rural Residential,37S,5W,9.0,SWSE,5.49 miles S of GP,Josephine,SW3,Closed Fire Season Lvl 1,Lvl 1 Fire Season Only,10/06/2017 03:05:00 PM,10/06/2017 03:15:00 PM,10/06/2017 03:10:00 PM,10/09/2017 11:55:00 AM,10/06/2017 12:00:00 AM,10/16/2017 01:55:00 PM,71,712,657
11693,112028,STAT,2018,EOA,Klamath-Lake,Klamath,18-981038-19,Bone 346,A,0.1,0.1,Human,Other-Public,Under Invest,,All evidence was destroed during I.A.,42.16944,-121.45333,POINT (-121.45333 42.16944),Other Private,39S,11.5E,19.0,NWSE,Bonanza,Klamath,KF1,Reg Use Closure,Does Not Apply - Eastern OR,08/08/2018 07:20:00 PM,08/08/2018 09:00:00 PM,08/08/2018 07:25:00 PM,08/08/2018 09:30:00 PM,08/09/2018 12:00:00 AM,10/04/2018 02:52:00 PM,98,981,038
11694,110479,STAT,2018,EOA,Central Oregon,John Day,18-952091-18,Lost Hubcap,B,1.23,1.23,Human,Other-Public,Miscellaneous,Other - Miscellaneous Related,Undetermined - Most likely human caused,44.69742,-119.42789,POINT (-119.42789 44.69742),Other Private,10S,27E,14.0,SESE,Lost Hubcap Road,Grant,EC2,Closed Fire Season Lvl 1,Does Not Apply - Eastern OR,06/07/2018 02:00:00 PM,06/07/2018 02:26:00 PM,06/07/2018 02:15:00 PM,06/07/2018 03:03:00 PM,06/07/2018 12:00:00 AM,08/06/2018 06:17:00 PM,95,952,091
11697,127859,STAT,2021,NOA,North Cascade,Santiam,21-582036-22,Ike mooney patch,A,0.01,0.01,Human,Ruralist-Paying,Miscellaneous,Other - Miscellaneous Related,Unknown cause,44.99622,-122.75256,POINT (-122.75256 44.99622),Rural Residential,7S,1W,1.0,NWNE,1.6 m E of Silverton,Marion,CM1,Reg Use Closure,Lvl 2 Limited Shutdown,09/04/2021 03:45:00 PM,09/04/2021 03:45:00 PM,09/04/2021 03:45:00 PM,09/04/2021 04:10:00 PM,09/10/2021 12:00:00 AM,09/30/2021 03:09:00 PM,58,582,036
11698,113560,STAT,2018,SOA,Southwest Oregon,Grants Pass,18-712931-19,I5 SB MP 57,A,0.01,0.01,Human,Motorist,Miscellaneous,Other - Miscellaneous Related,Blown Wheel bearing on vehicle travelling SB along I5,42.45513,-123.3096,POINT (-123.3096 42.45513),State,36S,5W,8.0,SENE,1.47 miles NE of GP,Josephine,SW3,Reg Use Closure,Lvl 1 Fire Season Only,10/18/2018 03:30:00 PM,10/18/2018 03:40:00 PM,10/18/2018 03:35:00 PM,10/21/2018 11:11:00 AM,10/18/2018 12:00:00 AM,10/25/2018 04:18:00 PM,71,712,931
11701,117058,STAT,2019,NOA,West Oregon,Dallas,19-552008-20,Fort Hill Pile,A,0.0,0.0,Human,Other-Public,Miscellaneous,Warming Fire,Most likely caused by warming fire in slash pile.,45.09671,-123.55637,POINT (-123.55637 45.09671),Industrial,5S,7W,33.0,SENW,3.66 miles West of Willamina,Yamhill,WO1,Outside Closed Fire Season,Outside Closed Fire Season,09/29/2019 06:00:00 PM,09/30/2019 08:00:00 AM,09/30/2019 06:00:00 AM,09/30/2019 07:00:00 AM,09/30/2019 12:00:00 AM,09/30/2019 05:00:00 PM,55,552,008
11704,119826,STAT,2020,NOA,North Cascade,Molalla,20-581018-21,Molalla Forest Rd.,A,0.2,0.2,Human,Other-Public,Under Invest,,Under Investagation,45.13481,-122.57517,POINT (-122.57517 45.13481),Municipal,5S,2E,16.0,NESW,1 Mile S of Molalla,Clackamas,CM1,Reg Use Closure,Lvl 2 Limited Shutdown,08/03/2020 11:09:00 AM,08/03/2020 11:13:00 AM,08/03/2020 11:12:00 AM,08/03/2020 11:20:00 AM,08/03/2020 12:00:00 AM,12/01/2020 10:40:00 AM,58,581,018
11705,120004,STAT,2020,SOA,Southwest Oregon,Grants Pass,20-712224-21,Millie St 233,A,0.01,0.01,Human,Other-Landowner Related,Miscellaneous,Hot Ashes (Dumping of),Dumped ashes from BBQ tray,42.17054,-123.6484,POINT (-123.6484 42.17054),Other Private,39S,8W,16.0,SWSE,0.53 mi N of Cave Junction,Josephine,SW3,Reg Use Closure,Lvl 2 Limited Shutdown,08/08/2020 06:15:00 PM,08/08/2020 06:16:00 PM,08/08/2020 06:15:00 PM,08/11/2020 05:01:00 PM,08/08/2020 12:00:00 AM,08/21/2020 12:58:00 PM,71,712,224
11706,116217,STAT,2019,EOA,Northeast Oregon,Pendleton,19-973026-20,Blackberry,A,0.1,0.1,Human,Recreationist,Recreation,Campfire Not Extinguished,camp fire not extinguished properly,45.79111,-118.16111,POINT (-118.16111 45.79111),Small Woodlands,4N,37E,26.0,SESW,Tollgate Chateau,Umatilla,NE1,Reg Use Closure,Does Not Apply - Eastern OR,08/24/2019 06:00:00 PM,08/25/2019 12:14:00 PM,08/25/2019 12:10:00 PM,08/25/2019 02:00:00 PM,08/25/2019 12:00:00 AM,10/01/2019 09:59:00 AM,97,973,026
11711,108343,STAT,2017,EOA,Northeast Oregon,La Grande,17-971011-18,Elkhana,A,0.1,0.1,Lightning,Lightning,Lightning,Lightning,Lightning struck tree,45.23194,-118.45167,POINT (-118.45167 45.23194),Other Private,4S,35E,8.0,SWNE,,Union,NE3,Absolute Closure,Lvl 1 Fire Season Only,08/11/2017 05:02:00 PM,08/11/2017 08:02:00 PM,08/11/2017 07:53:00 PM,08/11/2017 10:36:00 PM,08/11/2017 12:00:00 AM,10/19/2017 02:24:00 PM,97,971,011
11712,128227,STAT,2021,SOA,Southwest Oregon,Grants Pass,21-712620-22,Murphy Wayside,A,0.01,0.01,Human,Other-Public,Smoking,Discarded Cigarette/Tobacco,Burning cigarette butt discarded in stump,42.34796,-123.33299,POINT (-123.33299 42.34796),County,37S,5W,18.0,SWSE,6.29 miles South of Grants Pas,Josephine,SW3,Reg Use Closure,Lvl 1 Fire Season Only,10/01/2021 06:50:00 PM,10/01/2021 06:52:00 PM,10/01/2021 06:51:00 PM,10/04/2021 07:00:00 PM,10/01/2021 12:00:00 AM,10/02/2021 03:13:00 PM,71,712,620
11715,126589,STAT,2021,EOA,Central Oregon,John Day,21-952030-22,Dale 21284,B,1.1,1.1,Human,Motorist,Equipment Use,Carbon Sparks from Vehicle,,44.98472,-118.955,POINT (-118.955 44.98472),Other Private,7S,31E,2.0,SESW,Dale,Umatilla,EC2,Reg Use Closure,Does Not Apply - Eastern OR,07/31/2021 03:00:00 AM,07/31/2021 06:34:00 AM,07/31/2021 05:30:00 AM,07/31/2021 04:31:00 PM,07/31/2021 12:00:00 AM,08/07/2021 11:43:00 AM,95,952,030
11719,124773,STAT,2021,SOA,South Cascade,Eastern Lane,21-771018-22,Pengra,A,0.15,0.15,Human,Ruralist-Paying,Debris Burning,Unattended,Possible rekindle of burn pile,43.94529,-122.83231,POINT (-122.83231 43.94529),Rural Residential,19S,1W,5.0,NWSE,,Lane,EL1,Reg Use Closure,Lvl 2 Limited Shutdown,07/06/2021 02:20:00 PM,07/06/2021 02:23:00 PM,07/06/2021 02:20:00 PM,07/06/2021 03:00:00 PM,07/06/2021 12:00:00 AM,09/15/2021 12:27:00 PM,77,771,018
11722,123955,STAT,2021,SOA,Coos - CFPA,Coos Bay,21-721203-21,Twig Terrace,B,0.33,0.33,Human,Transient,Miscellaneous,Warming Fire,Transient camp warming fire,43.37778,-124.25167,POINT (-124.25167 43.37778),Municipal,25S,13W,28.0,NENW,1.5 W Coos Bay,Coos,CS1,Reg Use Closure,Lvl 1 Fire Season Only,06/02/2021 04:00:00 PM,06/06/2021 03:42:00 PM,06/06/2021 03:30:00 PM,06/06/2021 08:33:00 PM,06/07/2021 12:00:00 AM,07/06/2021 04:27:00 PM,72,721,203
11724,108437,STAT,2017,SOA,Southwest Oregon,Medford,17-711199-18,Slide,A,0.1,0.1,Lightning,Lightning,Lightning,Lightning,,42.0125,-122.53217,POINT (-122.53217 42.0125),BLM,41S,2E,12.0,SWSE,15.52 miles Southeast of Ashla,Jackson,SW2,Reg Use Closure,Lvl 3 Restricted Shutdown,08/09/2017 08:05:00 PM,08/10/2017 11:18:00 AM,08/10/2017 11:18:00 AM,08/13/2017 02:00:00 PM,08/20/2017 12:00:00 AM,08/20/2017 03:13:00 PM,71,711,199
11726,110376,STAT,2018,SOA,Coos - CFPA,Coos Bay,18-721162-18,Coal Creek Road,A,0.01,0.01,Human,Recreationist,Recreation,Warming Fire Not Extinguished,,43.36083,-123.85306,POINT (-123.85306 43.36083),Industrial,25S,10W,26.0,SESW,18 E Coos Bay,Coos,CS2,Closed Fire Season Lvl 1,Lvl 1 Fire Season Only,06/15/2018 09:30:00 PM,06/16/2018 01:49:00 PM,06/16/2018 01:49:00 PM,06/16/2018 04:23:00 PM,06/16/2018 12:00:00 AM,06/19/2018 05:04:00 PM,72,721,162
11727,122208,STAT,2020,SOA,Southwest Oregon,Medford,20-711274-21,Greenway MM 24.2,D,105.0,0.0,Human,Transient,Recreation,"Campfire Left Unattended (camp site, cooking)",,42.36583,-122.8875,POINT (-122.8875 42.36583),County,37S,2W,12.0,NESW,Bear Creek,Jackson,SW1,Reg Use Closure,Lvl 4 Complete Shutdown,09/09/2020 03:10:00 PM,09/09/2020 03:18:00 PM,09/09/2020 03:10:00 PM,09/09/2020 08:58:00 PM,09/10/2020 12:00:00 AM,09/10/2020 06:32:00 PM,71,711,274
11728,123819,STAT,2021,SOA,Southwest Oregon,Medford,21-711466-21,E Antelope MM15,C,49.0,49.0,Human,Recreationist,Recreation,"Campfire Left Unattended (camp site, cooking)",Most probable cause is a campfire left unattended,42.34328,-122.66772,POINT (-122.66772 42.34328),BLM,37S,1E,23.0,NWNE,9.02 miles Northeast of Phoeni,Jackson,SW1,Closed Fire Season Lvl 1,Lvl 1 Fire Season Only,05/29/2021 02:36:00 PM,05/29/2021 02:41:00 PM,05/29/2021 02:36:00 PM,05/30/2021 02:49:00 AM,05/29/2021 12:00:00 AM,09/14/2021 11:59:00 AM,71,711,466
11730,109878,STAT,2017,NOA,North Cascade,Molalla,17-581062-18,Bear Creek,D,250.0,250.0,Human,Other Forest Mgt. Worker,Debris Burning,Industrial- Slash-Failure to Adequately Mop Up,,45.07153,-122.40136,POINT (-122.40136 45.07153),Industrial,6S,3E,2.0,SESE,10mi SE Molalla,Clackamas,CM1,Outside Closed Fire Season,Outside Closed Fire Season,10/19/2017 09:00:00 AM,10/30/2017 06:00:00 AM,10/30/2017 06:00:00 AM,10/30/2017 06:00:00 PM,11/01/2017 12:00:00 AM,12/01/2017 05:03:00 PM,58,581,062
11733,114246,STAT,2019,SOA,Western Lane,Veneta,19-781099-19,Laughlin Road,A,0.01,0.01,Human,Other-Landowner Related,Debris Burning,Inadequate Resources to Control,Burnung debris pile escaped due to inadequate resources.,43.95972,-123.17944,POINT (-123.17944 43.95972),Other Private,18S,4W,33.0,NESW,7.86 SW Eugene,Lane,WT1,Outside Closed Fire Season,Outside Closed Fire Season,05/08/2019 02:00:00 PM,05/08/2019 02:28:00 PM,05/08/2019 02:28:00 PM,05/08/2019 03:18:00 PM,05/08/2019 12:00:00 AM,07/04/2019 02:44:00 PM,78,781,099
11736,111142,STAT,2018,EOA,Northeast Oregon,Pendleton,18-973008-19,Railroad 1,A,0.01,0.0,Human,Public Utility,Railroad,Brakeshoe,Sparks from breaks,45.57194,-118.32306,POINT (-118.32306 45.57194),Other Private,1N,36E,16.0,NENW,Duncan Guard Station,Umatilla,NE1,Closed Fire Season Lvl 1,Does Not Apply - Eastern OR,07/14/2018 12:00:00 PM,07/16/2018 02:21:00 PM,07/14/2018 12:30:00 PM,07/16/2018 01:30:00 PM,07/16/2018 12:00:00 AM,10/30/2018 03:10:00 PM,97,973,008
11740,108023,STAT,2017,NOA,West Oregon,Dallas,17-552009-18,22 Kings Fire,B,5.0,5.0,Human,Motorist,Equipment Use,Carbon Sparks from Vehicle,,44.96222,-123.28861,POINT (-123.28861 44.96222),Other Private,7S,5W,15.0,NESW,Highway 22,Polk,WO1,Reg Use Closure,Lvl 3 Restricted Shutdown,08/03/2017 11:22:00 AM,08/03/2017 11:24:00 AM,08/03/2017 11:23:00 AM,08/03/2017 11:45:00 AM,08/03/2017 12:00:00 AM,08/07/2017 02:27:00 PM,55,552,009
11742,106779,STAT,2017,SOA,Douglas - DFPA,DFPA Central,17-733233-17,Clearview Dr,A,0.25,0.25,Human,Rancher-Farmer,Debris Burning,Unattended,Rekindle from burn pile set by landowner,43.30667,-123.3675,POINT (-123.3675 43.30667),Rural Residential,26S,6W,14.0,NESE,Del Rio,Douglas,DG1,Closed Fire Season Lvl 1,Lvl 1 Fire Season Only,06/21/2017 03:25:00 PM,06/21/2017 03:25:00 PM,06/21/2017 03:25:00 PM,06/21/2017 03:42:00 PM,06/21/2017 12:00:00 AM,06/30/2017 06:14:00 PM,73,733,233
11743,113270,STAT,2018,NOA,Astoria,Astoria,18-521032-19,Hoosker Doo,A,0.02,0.02,Human,Recreationist,Recreation,Fireworks,"Cause likely fireworks, ""Thors Hammer"" firework found.",46.12952,-123.52663,POINT (-123.52663 46.12952),Industrial,8N,7W,35.0,SWSW,15.17 miles East of Astoria,Clatsop,NW2,Closed Fire Season Lvl 1,Lvl 1 Fire Season Only,10/01/2018 08:00:00 PM,10/02/2018 08:40:00 AM,10/02/2018 08:40:00 AM,10/02/2018 03:00:00 PM,10/02/2018 12:00:00 AM,10/02/2018 04:10:00 PM,52,521,032
11744,109557,STAT,2017,EOA,Central Oregon,Sisters,17-955076-18,Knott 1214,A,0.25,0.25,Human,Other-Landowner Related,Miscellaneous,Spontaneous Combustion,Multiple hot smoldering barkdust/grinding piles,43.99194,-121.32917,POINT (-121.32917 43.99194),Other Private,18S,12E,20.0,NWSE,2 Miles S of Bend,Deschutes,WC2,Reg Use Closure,Does Not Apply - Eastern OR,09/24/2017 09:00:00 AM,09/24/2017 09:40:00 AM,09/24/2017 09:30:00 AM,09/24/2017 01:00:00 PM,09/25/2017 12:00:00 AM,10/05/2017 12:18:00 PM,95,955,076
11745,115439,STAT,2019,SOA,Southwest Oregon,Grants Pass,19-712273-20,Reeves Creek,B,1.5,1.5,Human,Motorist,Arson,Other - Arson Related,Arson - under investigation refer to Chuck Miller,42.23644,-123.62011,POINT (-123.62011 42.23644),Industrial,38S,8W,26.0,SWNW,5.28 miles N of CJ,Josephine,SW3,Reg Use Closure,Lvl 2 Limited Shutdown,08/03/2019 05:40:00 PM,08/03/2019 05:48:00 PM,08/03/2019 05:45:00 PM,08/07/2019 01:05:00 PM,08/04/2019 12:00:00 AM,08/07/2019 03:44:00 PM,71,712,273
11748,114949,STAT,2019,EOA,Northeast Oregon,Pendleton,19-973003-20,McKay Creek,C,18.5,18.5,Human,Rancher-Farmer,Equipment Use,Mowing - Roadside,Fire caused by ember lodged in grass under mower deck.,45.49947,-118.72289,POINT (-118.72289 45.49947),Small Woodlands,1S,33E,6.0,SWSE,McDonald Canyon,Umatilla,NE1,Closed Fire Season Lvl 1,Does Not Apply - Eastern OR,07/14/2019 12:49:00 PM,07/14/2019 12:56:00 PM,07/14/2019 12:52:00 PM,07/15/2019 12:08:00 PM,07/15/2019 12:00:00 AM,07/18/2019 01:20:00 PM,97,973,003
11749,112337,STAT,2018,EOA,Central Oregon,John Day,18-952036-19,Jennies Peak,G,45975.0,410.0,Lightning,Lightning,Lightning,Lightning,Fire orginated on non-paying ground,44.82933,-120.25831,POINT (-120.25831 44.82933),Other Private,8S,21E,31.0,NWNE,,Wheeler,EC1,Reg Use Closure,Does Not Apply - Eastern OR,08/17/2018 02:37:00 AM,08/17/2018 04:47:00 PM,08/17/2018 04:46:00 PM,09/21/2018 02:00:00 PM,08/20/2018 12:00:00 AM,11/19/2018 12:58:00 PM,95,952,036
11750,107887,STAT,2017,NOA,North Cascade,Santiam,17-582014-18,Towers Creek Fire,A,0.25,0.25,Human,Other-Public,Miscellaneous,Other - Miscellaneous Related,Structure fire moving to wildland,44.77775,-122.68411,POINT (-122.68411 44.77775),Rural Residential,9S,1E,16.0,SESE,3mi W Lyons,Marion,CM1,Reg Use Closure,Lvl 2 Limited Shutdown,07/29/2017 05:35:00 PM,07/29/2017 05:38:00 PM,07/29/2017 05:35:00 PM,07/29/2017 06:45:00 PM,07/30/2017 12:00:00 AM,07/30/2017 04:04:00 PM,58,582,014
11753,121714,STAT,2020,SOA,Douglas - DFPA,DFPA North,20-731236-21,MP 153,A,0.1,0.1,Human,Motorist,Equipment Use,"Other -Equipment Use Related (ie. road const., other i.c.e.)",undeterimed specific vehicle cause,43.59331,-123.24606,POINT (-123.24606 43.59331),State,23S,5W,1.0,SWSW,Yoncalla,Douglas,DG1,Reg Use Closure,Lvl 3 Restricted Shutdown,08/25/2020 06:00:00 PM,08/25/2020 06:05:00 PM,08/25/2020 06:00:00 PM,08/25/2020 06:30:00 PM,08/28/2020 12:00:00 AM,08/28/2020 11:17:00 AM,73,731,236
11755,112276,STAT,2018,EOA,Central Oregon,John Day,18-952033-19,Lost Valley,A,0.25,0.25,Lightning,Lightning,Lightning,Lightning,"8/16 Lightning Storm, caused by lightning struck tree",45.0571,-119.958,POINT (-119.958 45.0571),Small Woodlands,6S,23E,10.0,NWSE,Lost Valley,Wheeler,EC1,Reg Use Closure,Does Not Apply - Eastern OR,08/17/2018 03:10:00 AM,08/18/2018 07:00:00 AM,08/18/2018 07:00:00 AM,08/20/2018 06:56:00 PM,08/18/2018 12:00:00 AM,08/23/2018 03:35:00 PM,95,952,033
11761,124668,STAT,2021,SOA,Douglas - DFPA,DFPA Central,21-733017-22,MP 131 I-5 SB,A,0.01,0.01,Human,Transient,Arson,Other - Arson Related,Transient started a fire while walking down I-5,43.32369,-123.34456,POINT (-123.34456 43.32369),State,26S,5W,7.0,SWNW,4.86 miles South of Sutherlin,Douglas,DG1,Reg Use Closure,Lvl 3 Restricted Shutdown,07/04/2021 09:36:00 PM,07/04/2021 09:51:00 PM,07/04/2021 09:47:00 PM,07/04/2021 10:10:00 PM,07/04/2021 12:00:00 AM,11/12/2021 08:33:00 AM,73,733,017
11764,108662,STAT,2017,SOA,Douglas - DFPA,DFPA Central,17-733085-18,Dry Cr.,B,3.0,0.0,Lightning,Lightning,Lightning,Lightning,,43.3075,-122.585,POINT (-122.585 43.3075),USFS,26S,2E,16.0,SWNE,Idleyld Park,Douglas,DG1,Reg Use Closure,Lvl 3 Restricted Shutdown,08/10/2017 05:00:00 PM,08/12/2017 06:30:00 PM,08/12/2017 06:30:00 PM,08/13/2017 06:30:00 AM,08/19/2017 12:00:00 AM,08/25/2017 08:59:00 PM,73,733,085
11765,110022,STAT,2018,SOA,Southwest Oregon,Grants Pass,18-712727-18,Sleepy Hollow Lp 845,B,0.75,0.75,Human,Ruralist-Paying,Debris Burning,Inadequate clearing,burn pile that spread,42.37135,-123.42435,POINT (-123.42435 42.37135),Rural Residential,37S,6W,9.0,SWNW,6.78 Miles SW of GP,Josephine,SW3,Outside Closed Fire Season,Outside Closed Fire Season,05/12/2018 01:00:00 PM,05/12/2018 03:10:00 PM,05/12/2018 02:45:00 PM,05/16/2018 10:59:00 AM,05/14/2018 12:00:00 AM,05/18/2018 04:17:00 PM,71,712,727
11766,126577,STAT,2021,SOA,Southwest Oregon,Medford,21-711140-22,China Gulch,A,0.1,0.1,Lightning,Lightning,Lightning,Lightning,Lightning,42.24488,-123.05558,POINT (-123.05558 42.24488),BLM,38S,1W,21.0,SESE,Belle loop rd,Jackson,SW1,Reg Use Closure,Lvl 3 Restricted Shutdown,07/29/2021 04:40:00 PM,07/29/2021 05:50:00 PM,07/29/2021 05:45:00 PM,08/01/2021 12:44:00 PM,07/30/2021 12:00:00 AM,08/01/2021 01:41:00 PM,71,711,140
11768,110481,STAT,2018,EOA,Central Oregon,John Day,18-952094-18,Capsuttle,A,0.1,0.1,Lightning,Lightning,Lightning,Lightning,,44.36333,-119.135,POINT (-119.135 44.36333),Other Private,14S,30E,8.0,SESE,Capsuttle Creek,Grant,MA2,Closed Fire Season Lvl 1,Does Not Apply - Eastern OR,06/20/2018 05:00:00 PM,06/20/2018 05:31:00 PM,06/20/2018 05:30:00 PM,06/20/2018 06:33:00 PM,06/20/2018 12:00:00 AM,06/30/2018 04:29:00 PM,95,952,094
11769,115496,STAT,2019,EOA,Central Oregon,John Day,19-952030-20,Vortex Road,A,0.1,0.1,Lightning,Lightning,Lightning,Lightning,Lightning,44.67361,-119.74972,POINT (-119.74972 44.67361),Small Woodlands,10S,25E,29.0,NESW,,Wheeler,EC2,Reg Use Closure,Does Not Apply - Eastern OR,08/05/2019 04:21:00 AM,08/05/2019 08:38:00 AM,08/05/2019 08:30:00 AM,08/05/2019 06:30:00 PM,08/06/2019 12:00:00 AM,08/21/2019 06:33:00 PM,95,952,030
11770,116548,STAT,2019,SOA,Southwest Oregon,Grants Pass,19-712566-20,Pickett Mountain,A,0.01,0.01,Lightning,Lightning,Lightning,Lightning,Lightning Strike,42.37662,-123.305,POINT (-123.305 42.37662),Small Woodlands,37S,5W,4.0,SWSW,4.47 miles S of GP,Josephine,SW3,Reg Use Closure,Lvl 2 Limited Shutdown,09/05/2019 05:00:00 AM,09/05/2019 09:00:00 AM,09/05/2019 08:53:00 AM,09/08/2019 11:38:00 AM,09/06/2019 12:00:00 AM,09/16/2019 02:41:00 PM,71,712,566
11771,118535,STAT,2020,SOA,Coos - CFPA,Coos Bay,20-721026-21,Morgan Ridge,A,0.1,0.1,Human,Recreationist,Recreation,Other - Recreationist Related,,43.34389,-123.98917,POINT (-123.98917 43.34389),Industrial,26S,11W,3.0,NWSE,9 E Coos Bay,Coos,CS2,Reg Use Closure,Lvl 1 Fire Season Only,07/25/2020 11:00:00 PM,07/25/2020 11:32:00 PM,07/25/2020 11:15:00 PM,07/26/2020 03:25:00 AM,07/26/2020 12:00:00 AM,07/29/2020 06:46:00 PM,72,721,026
11775,127571,STAT,2021,NOA,Astoria,Astoria,21-521024-22,Tracer,C,15.0,15.0,Human,Other-Landowner Related,Miscellaneous,Other - Miscellaneous Related,Tracer rounds,46.13182,-123.94518,POINT (-123.94518 46.13182),State,8N,10W,32.0,NESE,2.52 miles Southwest of Warren,Clatsop,NW1,Reg Use Closure,Lvl 1 Fire Season Only,08/25/2021 06:00:00 PM,08/25/2021 06:50:00 PM,08/25/2021 06:00:00 PM,08/25/2021 10:00:00 PM,08/29/2021 12:00:00 AM,08/31/2021 11:10:00 AM,52,521,024
11776,110154,STAT,2018,SOA,Coos - CFPA,Coos Bay,18-721139-18,Blue Ridge,A,0.15,0.15,Human,Timber Harvest Worker,Miscellaneous,Warming Fire - Industrial,,43.25472,-124.14167,POINT (-124.14167 43.25472),BLM,27S,12W,5.0,SESE,6 NE Coquille,Coos,CS1,Outside Closed Fire Season,Outside Closed Fire Season,05/22/2018 06:00:00 AM,05/23/2018 08:35:00 AM,05/23/2018 06:00:00 AM,05/23/2018 06:05:00 AM,05/31/2018 12:00:00 AM,06/20/2018 03:37:00 PM,72,721,139
11777,117348,STAT,2020,SOA,Western Lane,Veneta,20-781060-20,Territorial Native,A,0.01,0.01,Human,Public Utility,Equipment Use,"Industrial- Welding, Cutting, or Grinding",Struck wire fencing with brush cutter spreading fire,43.83006,-123.23797,POINT (-123.23797 43.83006),County,20S,5W,13.0,NESW,9.2 miles West of Cottage Grov,Lane,WT1,Outside Closed Fire Season,Outside Closed Fire Season,04/16/2020 12:50:00 PM,04/16/2020 12:50:00 PM,04/16/2020 12:50:00 PM,04/16/2020 12:50:00 PM,04/16/2020 12:00:00 AM,04/28/2020 10:07:00 AM,78,781,060
11778,110456,STAT,2018,EOA,Walker Range - WRFPA,Crescent,18-991232-18,Frank,B,0.5,0.5,Human,Ruralist-Paying,Debris Burning,Inadequate Resources to Control,,43.494,-121.68,POINT (-121.68 43.494),Small Woodlands,24S,9E,17.0,SENW,GILCHRIST,Klamath,WC2,Outside Closed Fire Season,Does Not Apply - Eastern OR,04/23/2018 10:00:00 AM,04/23/2018 10:09:00 AM,04/23/2018 10:02:00 AM,04/23/2018 11:45:00 AM,06/22/2018 12:00:00 AM,04/01/2019 02:19:00 PM,99,991,232
11780,110619,STAT,2018,EOA,Central Oregon,The Dalles,18-954057-18,MP 58  I-84,A,0.18,0.0,Human,Recreationist,Recreation,"Campfire Left Unattended (camp site, cooking)","Based on start location, likely cause campfire by water",45.70194,-121.62528,POINT (-121.62528 45.70194),Other Public,3N,10E,31.0,NWNW,5 Miles West of Hood River,Hood River,MH4,Reg Use Closure,Lvl 1 Fire Season Only,06/29/2018 09:00:00 PM,06/29/2018 09:42:00 PM,06/29/2018 09:40:00 PM,06/30/2018 12:21:00 AM,06/29/2018 12:00:00 AM,06/30/2018 11:36:00 AM,95,954,057
11781,109084,STAT,2017,SOA,Southwest Oregon,Medford,17-711304-18,Fall Creek,A,0.01,0.01,Human,Timber Harvest Worker,Equipment Use,Industrial- Other - Logging Equipment Use,D-8 Dozer ripping the ground struck a rock in dry grass.,42.06568,-122.32533,POINT (-122.32533 42.06568),Industrial,40S,4E,26.0,SENW,21.65 miles Southeast of Ashla,Jackson,SW2,Reg Use Closure,Lvl 4 Complete Shutdown,09/02/2017 07:20:00 PM,09/02/2017 07:47:00 PM,09/02/2017 07:30:00 PM,09/06/2017 02:00:00 PM,10/17/2017 12:00:00 AM,10/17/2017 04:00:00 PM,71,711,304
11783,109990,STAT,2018,EOA,Central Oregon,The Dalles,18-954050-18,Endersby Road,B,1.14,1.14,Human,Rancher-Farmer,Debris Burning,Burning During Poor Condition,Burning without a permit in high wind conditions,45.13417,-121.35889,POINT (-121.35889 45.13417),Small Woodlands,5S,12E,18.0,NWSW,14 Miles West of Maupin,Wasco,MH1,Outside Closed Fire Season,Does Not Apply - Eastern OR,04/27/2018 11:00:00 AM,04/27/2018 02:28:00 PM,04/27/2018 02:00:00 PM,04/27/2018 06:40:00 PM,04/27/2018 12:00:00 AM,05/23/2018 02:18:00 PM,95,954,050
11790,123894,STAT,2021,NOA,West Oregon,Philomath,21-551036-21,Salmonberry,B,0.34,0.34,Human,Other-Landowner Related,Debris Burning,Industrial- Slash-Other Slash Disposal Fires During Burn,"Escaped broadcast burn, escape was reported to ODF on5/25/21",44.33278,-123.63423,POINT (-123.63423 44.33278),Industrial,14S,8W,22.0,SESE,3.86 miles SW of Alsea,Benton,WO2,Outside Closed Fire Season,Outside Closed Fire Season,04/30/2021 03:30:00 PM,05/25/2021 02:00:00 PM,04/30/2021 03:35:00 PM,04/30/2021 04:30:00 PM,06/02/2021 12:00:00 AM,06/04/2021 11:18:00 AM,55,551,036
